     3.03           OBSERVATION DATA    M: Mixed            RINEX VERSION / TYPE
RTKCONV demo5 b31   Joe Adams           20190327 162258 UTC PGM / RUN BY / DATE 
log: H:\Data\Colorado\2019-0326-Fed-Center\CWW_PPK_Files_2  COMMENT             
format: ComNav                                              COMMENT             
CWW-PPK-v2                                                  MARKER NAME         
                                                            MARKER NUMBER       
                                                            MARKER TYPE         
                    USGS                                    OBSERVER / AGENCY   
                                                            REC # / TYPE / VERS 
CNTAT190                                                    ANT # / TYPE        
        0.0000        0.0000        0.0000                  APPROX POSITION XYZ 
        0.0000        0.0000        0.0000                  ANTENNA: DELTA H/E/N
G   12 C1C L1C D1C S1C C2D L2D D2D S2D C2X L2X D2X S2X      SYS / # / OBS TYPES 
R    8 C1C L1C D1C S1C C2C L2C D2C S2C                      SYS / # / OBS TYPES 
S    4 C1C L1C D1C S1C                                      SYS / # / OBS TYPES 
  2019     3    26    21    32   27.5000000     GPS         TIME OF FIRST OBS   
  2019     3    26    21    54   17.0000000     GPS         TIME OF LAST OBS    
G                                                           SYS / PHASE SHIFT   
R                                                           SYS / PHASE SHIFT   
S                                                           SYS / PHASE SHIFT   
  0                                                         GLONASS SLOT / FRQ #
 C1C    0.000 C1P    0.000 C2C    0.000 C2P    0.000        GLONASS COD/PHS/BIS 
                                                            END OF HEADER       
> 2019  3 26 21 32 27.5000000  0  9                     
G30                              2                         45.000                                                                                                                                  
G17  21604124.875   117413473.492        2286.797          45.000                                                                                                                                  
G11  21670851.750   117480920.914        -597.074          42.000                                                                                                                                  
G13  22199767.148   117455724.758         466.207          43.000                                                                                                                                  
G 1  22343927.328   117434358.105        1346.734          41.000                                                                                                                                  
G18  22644714.586   117477085.348        -387.496          40.000                                                                                                                                  
G15  24367965.789   125823299.566        1385.773          43.000                                                                                                                                  
G 8  24595964.461   125937055.410       -3508.965          42.000                                                                                                                                  
S31                                                        41.000  
> 2019  3 26 21 32 28.0000000  0  9                     
G30                              2                         45.000                                                                                                                                  
G17  21603908.148   117412109.305        2286.438          45.000                                                                    21603918.812    84431219.4841       1781.715          45.000  
G11  21670909.797   117480998.512        -597.715          42.000    21670919.117    92314607.191        -465.848          26.000                                                                  
G13  22199723.719   117455270.664         465.957          43.000    22199731.922    92289929.523         363.129          24.000                                                                  
G 1  22343800.016   117433463.934        1346.426          41.000    22343808.719    92269570.5511       1049.203          24.000    22343812.469    92821876.5121       1049.113          44.000  
G18  22644752.023   117477057.965        -388.051          41.000    22644760.961    92340661.9531       -302.441          21.000                                                                  
G15  24367834.930   125822385.734        1385.609          44.000    24367843.633   100657265.9101       1079.703          25.000                                                                  
G 8  24596299.055   125938588.625       -3509.383          43.000    24596312.508   100771142.988       -2734.594          26.000    24596313.078   101220960.9531      -2734.117          45.000  
S31                                                        41.000  
> 2019  3 26 21 32 40.0000000  0 15                     
G30  20328768.625   109107046.1051       -928.059          45.000    20328779.477    83939085.5621       -723.113          31.000    20328780.266    84588071.5311       -723.117          46.000  
G28                                                        43.000                                                          29.000                                                                  
G17  21598692.391   117381322.902        2280.715          45.000    21598702.594    92223843.129        1777.223          29.000    21598702.266    84407230.102        1777.293          45.000  
G11  21672282.672   117484837.578        -606.016          42.000    21672290.594    92317598.688        -472.168          25.000                                                                  
G19  23743515.711   125838801.0621       3717.906          39.000    23743525.758   100717184.6881       2897.047          23.000                                                                  
G13  22198668.430   117446347.188         457.293          43.000    22198677.547    92282976.152         356.285          25.000                                                                  
G 1  22340731.781   117413972.980        1338.574          40.000    22340746.422    92254382.797        1043.090          25.000    22340745.000    92806688.762        1043.066          44.000  
G18  22645645.555   117478379.414        -396.238          40.000    22645655.695    92341691.680        -308.785          20.000                                                                  
G 7  21936017.750   117479377.8481      -2672.727          43.000    21936028.070    92329255.4021      -2082.637          25.000    21936027.680    93123963.379       -2082.508          43.000  
G15  24364676.609   125802419.402        1378.320          43.000    24364688.070   100641707.723        1073.965          25.000    24364687.531   101195026.688        1073.914          43.000  
G 8  24604312.492   125977320.992       -3510.078          42.000    24604325.273   100801324.027       -2735.094          26.000    24604325.766   101251142.020       -2735.020          44.000  
G 4                              1                         39.000                                3                         22.000                                3                         44.000  
S35                                                        41.000  
S33                              1                         42.000  
S31                                                        41.000  
> 2019  3 26 21 32 41.0000000  0 15                     
G30  20328946.234   109107859.137        -928.715          45.000    20328956.609    83939719.094        -723.707          31.000    20328957.016    84588705.070        -723.621          47.000  
G28                                                        43.000                                                          29.000                                                                  
G17  21598258.367   117378927.035        2280.230          45.000    21598269.070    92221976.230        1776.727          29.000    21598268.922    84405363.191        1776.891          45.000  
G11  21672398.617   117485328.766        -607.102          42.000    21672406.578    92317981.434        -473.016          27.000                                                                  
G19  23742808.031   125834968.699        3717.473          38.000    23742818.945   100714198.426        2896.746          24.000                                                                  
G13  22198581.656   117445774.801         456.730          44.000    22198591.250    92282530.168         355.836          25.000                                                                  
G 1  22340478.102   117412519.566        1337.758          40.000    22340492.297    92253250.270        1042.445          25.000    22340490.125    92805556.246        1042.430          44.000  
G18  22645721.562   117478661.000        -397.000          41.000    22645731.875    92341911.102        -309.398          22.000                                                                  
G 7  21936526.656   117481935.555       -2673.074          42.000    21936537.125    92331248.414       -2082.871          25.000    21936536.508    93125956.395       -2083.203          43.000  
G15  24364415.516   125800926.055        1377.867          43.000    24364426.383   100640544.090        1073.766          25.000    24364426.484   101193863.039        1073.797          43.000  
G 8  24604980.859   125980715.977       -3510.066          42.000    24604993.727   100803969.508       -2735.156          26.000    24604994.641   101253787.473       -2735.352          44.000  
G 4                                                                                                                                                                                        44.000  
S35                                                        41.000  
S33                                                        42.000  
S31                                                        42.000  
> 2019  3 26 21 32 42.0000000  0 15                     
G30  20329122.656   109108698.664        -928.434          45.000    20329133.188    83940373.266        -723.445          31.000    20329133.711    84589359.242        -723.328          47.000  
G28                                                        43.000                                                          30.000                                                                  
G17  21597824.242   117376557.547        2280.395          45.000    21597834.969    92220129.875        1776.984          29.000    21597835.250    84403516.844        1776.961          45.000  
G11  21672513.914   117485846.559        -606.453          42.000    21672521.719    92318384.918        -472.625          25.000                                                                  
G19  23742101.062   125831162.508        3717.223          38.000    23742111.344   100711232.574        2896.520          24.000                                                                  
G13  22198494.844   117445229.043         456.531          44.000    22198504.375    92282104.855         355.789          24.000                                                                  
G 1  22340223.617   117411092.723        1337.812          40.000    22340237.672    92252138.457        1042.379          25.000    22340236.070    92804444.406        1042.664          44.000  
G18  22645796.586   117478969.242        -397.523          41.000    22645807.234    92342151.273        -309.746          21.000                                                                  
G 7  21937035.062   117484519.598       -2672.773          43.000    21937045.531    92333261.969       -2082.695          25.000    21937045.211    93127969.934       -2082.590          43.000  
G15  24364153.000   125799459.234        1377.840          43.000    24364163.992   100639401.090        1073.680          26.000    24364165.438   101192720.051        1073.938          43.000  
G 8  24605648.219   125984136.973       -3509.520          42.000    24605661.516   100806635.191       -2734.707          26.000    24605662.195   101256453.184       -2734.812          44.000  
G 4                                                                                                                                                                                        44.000  
S35                                                        41.000  
S33                                                        42.000  
S31                                                        42.000  
> 2019  3 26 21 32 43.0000000  0 15                     
G30  20329299.797   109109564.402        -929.852          45.000    20329310.336    83941047.879        -724.562          31.000    20329310.891    84590033.840        -724.535          47.000  
G28                                                        43.000                                                          29.000                                                                  
G17  21597390.570   117374214.148        2279.590          45.000    21597401.297    92218303.836        1776.301          29.000    21597401.211    84401690.820        1776.277          45.000  
G11  21672629.680   117486390.707        -608.258          42.000    21672637.594    92318808.910        -474.043          26.000                                                                  
G19  23741393.445   125827382.156        3717.645          39.000    23741404.430   100708286.848        2896.938          24.000                                                                  
G13  22198408.438   117444709.602         455.363          44.000    22198417.898    92281700.094         354.723          25.000                                                                  
G 1  22339969.438   117409692.160        1336.664          41.000    22339983.617    92251047.102        1041.551          25.000    22339982.430    92803353.078        1041.379          44.000  
G18  22645872.562   117479303.875        -399.031          41.000    22645883.266    92342412.008        -310.953          21.000                                                                  
G 7  21937543.711   117487129.715       -2674.098          43.000    21937554.375    92335295.809       -2083.613          26.000    21937554.992    93130003.777       -2083.594          43.000  
G15  24363891.367   125798018.641        1376.516          43.000    24363902.203   100638278.562        1072.512          26.000    24363902.422   101191597.516        1072.836          43.000  
G 8  24606316.617   125987583.738       -3510.578          42.000    24606329.727   100809320.980       -2735.570          27.000    24606330.734   101259138.957       -2735.523          44.000  
G 4                                                                                                                                                                                        44.000  
S35                                                        41.000  
S33                                                        42.000  
S31                                                        42.000  
> 2019  3 26 21 32 44.0000000  0 16                     
G30  20329474.805   109110456.727        -929.527          45.000    20329485.672    83941743.188        -724.297          31.000    20329486.062    84590729.164        -724.359          47.000  
G28                                                        43.000                                                          29.000                                                                  
G17  21596955.414   117371897.254        2279.641          45.000    21596965.742    92216498.492        1776.270          29.000    21596966.438    84399885.453        1776.457          45.000  
G11  21672743.969   117486961.590        -608.023          43.000    21672751.680    92319253.766        -473.840          26.000                                                                  
G19  23740686.102   125823628.055        3716.941          39.000    23740695.648   100705361.594        2896.289          24.000                                                                  
G13  22198320.180   117444216.902         455.254          44.000    22198329.703    92281316.199         354.727          26.000                                                                  
G 1  22339713.320   117408318.266        1336.738          41.000    22339727.586    92249976.555        1041.578          25.000    22339726.562    92802282.504        1041.750          44.000  
G18  22645947.141   117479665.242        -398.941          41.000    22645957.883    92342693.621        -310.859          22.000                                                                  
G 7  21938051.617   117489766.273       -2673.965          43.000    21938061.562    92337350.266       -2083.613          25.000    21938061.711    93132058.254       -2083.434          43.000  
G15  24363628.000   125796604.664        1376.805          43.000    24363638.523   100637176.773        1072.789          25.000    24363638.633   101190495.730        1072.797          43.000  
G 8  24606983.031   125991056.582       -3509.828          42.000    24606996.195   100812027.098       -2734.926          27.000    24606996.727   101261845.070       -2734.980          44.000  
G 4                                                                                                                                                                                        44.000  
S35                                                        42.000  
S33                                                        42.000  
S38                              2                         42.000  
S31                                                        42.000  
> 2019  3 26 21 32 45.0000000  0 16                     
G30  20329652.211   109111374.738        -930.324          45.000    20329663.094    83942458.516        -724.930          31.000    20329663.773    84591444.492        -724.742          46.000  
G28                                                        43.000                                                          29.000                                                                  
G17  21596522.414   117369605.934        2279.090          45.000    21596532.422    92214713.047        1775.941          30.000    21596533.062    84398100.012        1775.902          45.000  
G11  21672859.875   117487558.301        -609.195          42.000    21672867.945    92319718.719        -474.688          25.000                                                                  
G19  23739978.680   125819899.273        3716.883          39.000    23739988.555   100702456.051        2896.148          23.000                                                                  
G13  22198233.938   117443750.031         454.422          44.000    22198243.750    92280952.406         354.141          24.000                                                                  
G 1  22339459.680   117406970.145        1335.953          41.000    22339473.875    92248926.059        1041.059          25.000    22339471.812    92801232.020        1041.004          44.000  
G18  22646024.141   117480052.461        -399.852          40.000    22646034.102    92342995.320        -311.367          22.000                                                                  
G 7  21938561.156   117492428.375       -2674.406          42.000    21938570.648    92339424.645       -2084.000          25.000    21938570.797    93134132.613       -2084.125          43.000  
G15  24363366.000   125795216.406        1375.867          43.000    24363377.227   100636095.012        1072.094          25.000    24363377.492   101189413.957        1072.230          43.000  
G 8  24607651.852   125994554.613       -3510.195          42.000    24607664.492   100814752.832       -2735.109          26.000    24607664.945   101264570.812       -2735.102          44.000  
G 4                                                                                                                                                                                        44.000  
S35                                                        42.000  
S33                                                        42.000  
S38                                                        41.000  
S31                                                        41.000  
> 2019  3 26 21 32 46.0000000  0 16                     
G30  20329829.695   109112304.223        -930.422          45.000    20329840.148    83943182.770        -724.984          31.000    20329840.969    84592168.770        -725.266          46.000  
G28                                                        43.000                                                          29.000                                                                  
G17  21596088.539   117367325.992        2279.105          45.000    21596098.789    92212936.438        1775.938          29.000    21596098.945    84396323.438        1775.777          44.000  
G11  21672976.422   117488166.617        -609.484          42.000    21672983.828    92320192.719        -474.887          26.000                                                                  
G19  23739271.367   125816181.672        3716.625          38.000    23739281.328   100699559.176        2896.156          24.000                                                                  
G13  22198147.797   117443294.762         454.324          44.000    22198157.391    92280597.621         353.984          24.000                                                                  
G 1  22339205.578   117405633.570        1335.621          41.000    22339219.664    92247884.547        1040.812          25.000    22339218.250    92800190.547        1040.574          44.000  
G18  22646100.172   117480451.352        -400.074          41.000    22646110.320    92343306.125        -311.719          22.000                                                                  
G 7  21939069.641   117495101.824       -2674.609          43.000    21939079.445    92341507.832       -2084.117          26.000    21939080.570    93136215.809       -2083.980          42.000  
G15  24363104.398   125793839.652        1375.488          43.000    24363115.617   100635022.184        1071.777          26.000    24363115.578   101188341.172        1071.914          43.000  
G 8  24608319.812   125998063.676       -3509.840          42.000    24608332.469   100817487.137       -2734.891          26.000    24608333.500   101267305.133       -2734.984          44.000  
G 4                                                                                                                                                                                        43.000  
S35                                                        42.000  
S33                                                        42.000  
S38                                                        42.000  
S31                                                        41.000  
> 2019  3 26 21 32 47.0000000  0 16                     
G30  20330007.367   109113231.008        -931.418          45.000    20330017.953    83943904.945        -725.828          32.000    20330018.430    84592890.938        -725.879          47.000  
G28                                                        43.000                                                          29.000                                                                  
G17  21595655.969   117365043.254        2277.977          45.000    21595665.852    92211157.684        1775.059          30.000    21595665.617    84394544.668        1775.172          44.000  
G11  21673092.672   117488772.363        -610.668          42.000    21673100.516    92320664.758        -475.879          26.000                                                                  
G19  23738564.836   125812460.984        3716.512          39.000    23738574.664   100696659.973        2895.910          24.000                                                                  
G13  22198062.648   117442836.922         453.066          43.000    22198071.766    92280240.855         353.051          24.000                                                                  
G 1  22338951.766   117404294.355        1334.652          41.000    22338965.938    92246840.980        1039.961          25.000    22338964.781    92799146.996        1040.109          44.000  
G18  22646176.852   117480847.672        -401.000          41.000    22646187.086    92343614.957        -312.523          22.000                                                                  
G 7  21939579.047   117497772.422       -2675.516          43.000    21939589.047    92343588.812       -2084.738          26.000    21939589.516    93138296.793       -2084.527          42.000  
G15  24362843.164   125792460.211        1374.898          43.000    24362854.703   100633947.293        1071.301          26.000    24362854.703   101187266.289        1070.898          42.000  
G 8  24608987.555   126001569.574       -3510.492          42.000    24609000.969   100820219.012       -2735.492          27.000    24609001.984   101270037.000       -2735.312          44.000  
G 4                                                                                                                                                                                        43.000  
S35                                                        41.000  
S33                                                        42.000  
S38                                                        42.000  
S31                                                        42.000  
> 2019  3 26 21 32 48.0000000  0 15                     
G30  20330184.977   109114157.141        -931.730          45.000    20330195.562    83944626.613        -726.016          31.000    20330196.531    84593612.594        -725.980          47.000  
G28                                                        43.000                                                          30.000                                                                  
G17  21595222.812   117362759.750        2277.945          45.000    21595232.594    92209378.336        1775.035          29.000    21595233.344    84392765.324        1774.715          44.000  
G11  21673209.305   117489377.598        -611.000          42.000    21673216.969    92321136.332        -476.168          26.000                                                                  
G19  23737857.211   125808739.340        3716.125          38.000    23737867.961   100693759.992        2895.715          23.000                                                                  
G13  22197976.148   117442378.566         452.934          43.000    22197985.883    92279883.688         353.078          25.000                                                                  
G 1  22338698.562   117402954.594        1333.863          41.000    22338712.250    92245797.039        1039.336          25.000    22338710.977    92798103.008        1039.609          44.000  
G18  22646253.750   117481243.516        -401.102          41.000    22646263.805    92343923.402        -312.613          21.000                                                                  
G 7  21940088.766   117500442.215       -2675.375          43.000    21940098.422    92345669.141       -2084.738          25.000    21940098.805    93140377.156       -2084.535          43.000  
G15  24362582.297   125791080.152        1374.480          43.000    24362593.289   100632871.938        1070.965          25.000    24362593.320   101186190.922        1070.891          43.000  
G 8  24609656.516   126005074.328       -3510.219          42.000    24609669.414   100822949.996       -2735.316          26.000    24609670.078   101272767.973       -2735.090          44.000  
S35                                                        42.000  
S33                                                        42.000  
S38                                                        41.000  
S31                                                        42.000  
> 2019  3 26 21 32 49.0000000  0 22                     
G30  20330360.086   109115083.281        -932.609          45.000    20330370.875    83945348.270        -726.680          31.000    20330371.891    84594334.266        -726.734          46.000  
G28                                                        43.000                                                          29.000                                                                  
G17  21594787.344   117360476.156        2277.375          45.000    21594797.133    92207598.922        1774.570          29.000    21594797.938    84390985.906        1774.230          44.000  
G11  21673324.133   117489982.973        -611.648          42.000    21673331.227    92321608.070        -476.719          25.000                                                                  
G19  23737149.102   125805017.355        3715.555          39.000    23737158.836   100690859.715        2895.324          25.000                                                                  
G13  22197887.938   117441920.359         451.633          43.000    22197897.781    92279526.664         351.949          25.000                                                                  
G 1  22338442.672   117401614.906        1333.023          41.000    22338456.484    92244753.113        1038.785          25.000    22338455.359    92797059.105        1038.656          44.000  
G18  22646328.742   117481639.559        -402.535          41.000    22646338.336    92344232.031        -313.684          21.000                                                                  
G 7  21940595.906   117503111.898       -2676.039          43.000    21940605.633    92347749.461       -2085.270          26.000    21940605.938    93142457.426       -2085.273          42.000  
G15  24362319.008   125789700.152        1373.605          43.000    24362329.773   100631796.602        1070.383          25.000    24362330.297   101185115.582        1070.160          42.000  
G 8  24610322.312   126008578.598       -3510.195          42.000    24610335.234   100825680.586       -2735.156          26.000    24610336.617   101275498.590       -2735.586          44.000  
R20  19834678.664   108978638.191        2102.652          36.000    19834685.242    83837003.086        1636.117          40.000  
R 9  20029087.000   109121477.418       -1067.926          43.000    20029090.992    83947872.1021       -831.113          44.000  
R19  20805965.406   109145848.059       -2535.934          37.000    20805968.656    83977347.1051      -1972.270          37.000  
R 1  23272843.211   125887283.113        -939.844          39.000    23272851.031   100718898.5431       -731.023          36.000  
R 8  23437782.289   125901129.453       -3025.934          39.000    23437784.508   100732817.4181      -2353.492          38.000  
R21  23307072.852   125754268.9061       4544.809          39.000    23307078.406   100621735.7191       3533.961          39.000  
R10  20058020.352   109065079.230        1793.484          44.000    20058027.609    83923367.273        1394.961          38.000  
S35                                                        41.000  
S33                                                        42.000  
S38                                                        41.000  
S31                                                        42.000  
> 2019  3 26 21 32 50.0000000  0 22                     
G30  20330537.781   109116009.875        -933.016          45.000    20330548.297    83946070.301        -727.012          31.000    20330549.336    84595056.281        -726.902          47.000  
G28                                                        43.000                                                          29.000                                                                  
G17  21594354.305   117358192.914        2276.984          45.000    21594363.820    92205819.766        1774.289          29.000    21594364.945    84389206.750        1774.051          45.000  
G11  21673440.836   117490588.934        -612.086          42.000    21673447.734    92322080.250        -476.863          26.000                                                                  
G19  23736443.305   125801295.469        3715.805          38.000    23736451.570   100687959.582        2895.289          24.000                                                                  
G13  22197802.000   117441462.734         451.309          44.000    22197811.703    92279170.066         351.777          24.000                                                                  
G 1  22338188.852   117400275.730        1332.859          41.000    22338202.758    92243709.621        1038.559          26.000    22338201.195    92796015.586        1038.809          44.000  
G18  22646404.578   117482036.199        -403.168          41.000    22646414.797    92344541.082        -314.156          22.000                                                                  
G 7  21941105.336   117505781.863       -2676.215          43.000    21941114.758    92349829.941       -2085.324          26.000    21941114.680    93144537.922       -2085.312          43.000  
G15  24362057.758   125788320.594        1373.297          42.000    24362068.367   100630721.637        1070.148          26.000    24362068.859   101184040.598        1070.129          43.000  
G 8  24610990.266   126012082.840       -3510.227          41.000    24611003.211   100828411.184       -2735.297          27.000    24611004.234   101278229.164       -2735.336          44.000  
R20  19834285.453   108976528.383        2104.488          36.000    19834291.945    83835362.215        1636.004          40.000  
R 9  20029286.867   109122539.133       -1068.219          43.000    20029291.188    83948697.875        -830.672          45.000  
R19  20806439.234   109148377.711       -2536.965          36.000    20806442.586    83979314.594       -1972.527          38.000  
R 1  23273019.141   125888216.188        -939.828          39.000    23273027.094   100719624.270        -730.992          36.000  
R 8  23438347.625   125904149.426       -3026.047          39.000    23438349.977   100735166.281       -2353.574          38.000  
R21  23306223.711   125749718.195        4544.621          40.000    23306229.461   100618196.258        3534.754          39.000  
R10  20057684.258   109063279.625        1792.945          44.000    20057691.445    83921967.582        1394.480          38.000  
S35                                                        41.000  
S33                                                        42.000  
S38                                                        41.000  
S31                                                        42.000  
> 2019  3 26 21 32 51.0000000  0 22                     
G30  20330715.312   109116936.367        -933.734          45.000    20330725.984    83946792.246        -727.641          32.000    20330727.172    84595778.227        -727.453          47.000  
G28                                                        43.000                                                          29.000                                                                  
G17  21593920.719   117355909.465        2276.410          45.000    21593930.680    92204040.461        1773.836          30.000    21593930.922    84387427.449        1773.547          44.000  
G11  21673557.109   117491194.941        -613.098          42.000    21673564.531    92322552.469        -477.750          26.000                                                                  
G19  23735735.945   125797573.148        3715.184          39.000    23735744.484   100685059.090        2894.953          24.000                                                                  
G13  22197716.070   117441005.148         450.340          43.000    22197726.000    92278813.508         350.832          25.000                                                                  
G 1  22337935.336   117398936.531        1332.305          41.000    22337949.328    92242666.074        1038.168          25.000    22337948.312    92794972.086        1037.590          44.000  
G18  22646481.914   117482432.918        -404.020          41.000    22646491.422    92344850.215        -314.820          22.000                                                                  
G 7  21941614.844   117508451.605       -2676.633          44.000    21941624.078    92351910.270       -2085.672          26.000    21941624.570    93146618.246       -2085.832          42.000  
G15  24361796.453   125786940.984        1372.578          43.000    24361807.141   100629646.621        1069.605          25.000    24361806.703   101182965.582        1069.535          43.000  
G 8  24611657.695   126015586.520       -3510.656          42.000    24611671.312   100831141.316       -2735.578          26.000    24611672.750   101280959.293       -2735.562          44.000  
R20  19833892.023   108974418.984        2101.332          37.000    19833898.586    83833721.508        1634.879          40.000  
R 9  20029487.070   109123600.656       -1069.477          43.000    20029491.188    83949523.480        -831.102          45.000  
R19  20806913.297   109150907.379       -2536.703          38.000    20806917.078    83981282.137       -1973.051          37.000  
R 1  23273195.242   125889149.387        -940.457          38.000    23273202.633   100720350.074        -731.461          36.000  
R 8  23438912.477   125907169.098       -3026.848          39.000    23438914.883   100737514.906       -2354.172          38.000  
R21  23305374.445   125745166.984        4544.199          39.000    23305380.336   100614656.434        3534.344          39.000  
R10  20057347.648   109061479.652        1792.883          44.000    20057355.008    83920567.594        1394.477          38.000  
S35                                                        42.000  
S33                                                        42.000  
S38                                                        41.000  
S31                                                        42.000  
> 2019  3 26 21 32 52.0000000  0 22                     
G30  20330892.648   109117863.027        -934.180          45.000    20330902.984    83947514.324        -727.957          32.000    20330904.414    84596500.289        -727.750          47.000  
G28                                                        42.000                                                          30.000                                                                  
G17  21593487.664   117353626.070        2276.098          45.000    21593496.875    92202261.195        1773.570          30.000    21593496.570    84385648.172        1773.383          45.000  
G11  21673673.008   117491801.234        -613.988          42.000    21673680.898    92323024.906        -478.426          26.000                                                                  
G19  23735029.555   125793850.633        3715.027          38.000    23735036.805   100682158.391        2894.887          23.000                                                                  
G13  22197630.164   117440547.840         449.781          43.000    22197639.625    92278457.168         350.402          26.000                                                                  
G 1  22337681.422   117397597.605        1331.477          40.000    22337695.211    92241622.762        1037.629          25.000    22337694.039    92793928.730        1037.480          44.000  
G18  22646558.289   117482829.938        -404.566          41.000    22646567.703    92345159.613        -315.160          22.000                                                                  
G 7  21942123.945   117511121.363       -2677.016          43.000    21942132.773    92353990.590       -2086.008          26.000    21942133.109    93148698.566       -2086.059          42.000  
G15  24361534.742   125785561.559        1372.094          43.000    24361545.172   100628571.742        1069.086          25.000    24361545.000   101181890.707        1069.160          42.000  
G 8  24612326.109   126019089.855       -3510.371          42.000    24612338.781   100833871.176       -2735.289          27.000    24612340.586   101283689.168       -2735.547          44.000  
R20  19833498.555   108972309.957        2100.996          37.000    19833505.219    83832081.156        1634.328          40.000  
R 9  20029687.031   109124662.238       -1069.191          43.000    20029691.055    83950349.160        -831.438          45.000  
R19  20807386.984   109153437.438       -2537.633          38.000    20807391.000    83983249.949       -1973.730          37.000  
R 1  23273370.812   125890082.910        -940.594          39.000    23273378.227   100721076.152        -731.574          36.000  
R 8  23439477.602   125910188.688       -3027.285          39.000    23439479.875   100739863.473       -2354.582          38.000  
R21  23304525.320   125740615.531        4544.188          39.000    23304530.930   100611116.418        3534.125          40.000  
R10  20057010.930   109059679.594        1792.867          44.000    20057018.391    83919167.555        1394.422          38.000  
S35                                                        41.000  
S33                                                        42.000  
S38                                                        41.000  
S31                                                        42.000  
> 2019  3 26 21 32 53.0000000  0 18                     
G30  20331071.258   109118789.871        -936.996          45.000    20331081.586    83948236.527        -730.172          31.000    20331082.695    84597222.516        -730.090          47.000  
G28                                                        43.000                                                          29.000                                                                  
G17  21593055.078   117351342.777        2273.113          45.000    21593064.680    92200481.996        1771.309          29.000    21593064.656    84383868.977        1771.422          44.000  
G11  21673790.375   117492407.867        -616.777          42.000    21673798.516    92323497.570        -480.645          26.000                                                                  
G19  23734319.805   125790128.016        3712.859          38.000    23734330.531   100679257.672        2893.109          23.000                                                                  
G13  22197545.766   117440090.891         446.645          43.000    22197554.703    92278101.086         347.977          24.000                                                                  
G 1  22337429.219   117396258.926        1328.238          41.000    22337442.570    92240579.641        1034.965          25.000    22337441.508    92792885.617        1035.121          44.000  
G18  22646635.891   117483227.336        -407.566          41.000    22646645.562    92345469.238        -317.391          22.000                                                                  
G 7  21942634.000   117513791.176       -2679.734          43.000    21942642.836    92356070.961       -2088.102          25.000    21942643.750    93150778.953       -2088.273          42.000  
G15  24361274.312   125784182.363        1369.078          42.000    24361285.016   100627497.027        1066.887          25.000    24361285.188   101180816.012        1066.816          42.000  
G 8  24612995.016   126022592.918       -3513.102          41.000    24613007.695   100836600.840       -2737.523          26.000    24613008.883   101286418.820       -2737.211          44.000  
R 9                                                                  20029891.617    83951174.047        -827.559          45.000  
R 1  23273547.516   125891015.957        -937.695          39.000                                                                  
R21  23303676.383   125736062.934        4548.203          39.000    23303682.234   100607575.422        3538.770          40.000  
S35                                                        41.000  
S33                                                        42.000  
S38                                                        41.000  
S31                                                        41.000  
> 2019  3 26 21 32 54.0000000  0 20                     
G30  20331249.508   109119721.727        -935.043          45.000    20331259.859    83948962.656        -728.602          31.000    20331261.875    84597948.637        -728.789          47.000  
G28                                                        43.000                                                          29.000                                                                  
G17  21592622.742   117349064.383        2275.066          45.000    21592632.094    92198706.621        1772.816          29.000    21592632.336    84382093.602        1772.910          45.000  
G11  21673907.789   117493019.633        -615.207          42.000    21673915.922    92323974.293        -479.383          25.000                                                                  
G19  23733614.828   125786410.027        3714.430          39.000    23733623.898   100676360.547        2894.320          24.000                                                                  
G13  22197460.656   117439639.062         448.551          43.000    22197469.703    92277749.020         349.492          25.000                                                                  
G 1  22337176.578   117394925.344        1330.066          41.000    22337189.516    92239540.477        1036.344          24.000    22337189.180    92791846.457        1036.477          44.000  
G18  22646713.508   117483629.883        -405.930          41.000    22646723.008    92345782.906        -316.195          21.000                                                                  
G 7  21943144.133   117516465.863       -2677.875          43.000    21943152.742    92358155.160       -2086.602          26.000    21943154.547    93152863.125       -2086.594          42.000  
G15  24361013.719   125782808.199        1370.891          43.000    24361024.594   100626426.258        1068.219          27.000    24361024.922   101179745.223        1068.410          42.000  
G 8  24613663.312   126026100.500       -3510.758          42.000    24613676.250   100839334.035       -2735.656          26.000    24613677.172   101289152.008       -2735.453          44.000  
R20  19832629.539   108968098.8201       2098.750          37.000    19832635.469    83828806.0161       1632.980          40.000  
R 9  20030003.453   109126790.5431      -1070.207          43.000    20030007.164    83952003.457        -832.309          45.000  
R 1  23273638.562   125891955.020        -942.750          39.000                                                                  
R21  23302742.508   125731515.746        4544.051          39.000    23302748.320   100604038.637        3534.488          39.000  
R10  20056254.344   109056084.8711       1792.004          44.000    20056261.797    83916371.1721       1393.781          38.000  
S35                                                        41.000  
S33                                                        42.000  
S38                                                        42.000  
S31                                                        41.000  
> 2019  3 26 21 32 55.0000000  0 22                     
G30  20331427.219   109120655.762        -935.742          45.000    20331437.625    83949690.465        -729.172          32.000    20331439.047    84598676.453        -728.965          47.000  
G28                                                        43.000                                                          30.000                                                                  
G17  21592189.188   117346788.055        2274.945          45.000    21592198.883    92196932.871        1772.602          30.000    21592199.484    84380319.855        1772.508          45.000  
G11  21674025.422   117493633.719        -615.867          42.000    21674032.969    92324452.809        -479.941          26.000                                                                  
G19  23732907.461   125782693.875        3714.305          39.000    23732916.719   100673464.824        2894.355          24.000                                                                  
G13  22197375.227   117439189.539         447.844          43.000    22197383.977    92277398.754         348.980          25.000                                                                  
G 1  22336923.336   117393594.000        1329.551          41.000    22336936.008    92238503.070        1035.957          25.000    22336935.805    92790809.051        1036.094          44.000  
G18  22646790.617   117484034.793        -406.812          41.000    22646800.141    92346098.426        -317.008          22.000                                                                  
G 7  21943653.383   117519142.582       -2678.355          43.000    21943662.141    92360240.887       -2086.973          26.000    21943662.828    93154948.875       -2086.793          43.000  
G15  24360752.711   125781436.234        1370.410          43.000    24360763.266   100625357.180        1067.793          26.000    24360764.031   101178676.176        1067.680          42.000  
G 8  24614330.555   126029609.773       -3510.492          42.000    24614344.039   100842068.508       -2735.426          27.000    24614344.945   101291886.516       -2735.637          44.000  
R20  19832237.023   108965998.148        2099.066          37.000    19832242.469    83827172.168        1632.262          40.000  
R 9  20030203.820   109127859.262       -1070.320          43.000    20030207.375    83952834.691        -832.402          45.000  
R19  20808727.102   109161041.8091      -2538.793          37.000    20808730.555    83989165.1211      -1975.902          37.000  
R 1  23273814.812   125892896.633        -942.762          39.000    23273821.672   100723264.8591       -733.293          36.000  
R 8  23441089.469   125919259.5391      -3028.172          39.000                                                                  
R21  23301893.469   125726970.543        4544.066          40.000    23301899.055   100600503.500        3534.316          39.000  
R10  20055918.008   109054291.551        1791.781          44.000    20055925.258    83914976.367        1393.590          38.000  
S35                                                        41.000  
S33                                                        42.000  
S38                                                        41.000  
S31                                                        41.000  
> 2019  3 26 21 32 56.0000000  0 22                     
G30  20331605.438   109121591.508        -935.703          45.000    20331615.773    83950419.625        -729.066          31.000    20331617.039    84599405.609        -729.277          47.000  
G28                                                        43.000                                                          29.000                                                                  
G17  21591756.406   117344513.367        2274.387          45.000    21591765.969    92195160.391        1772.301          30.000    21591766.883    84378547.348        1772.406          45.000  
G11  21674142.977   117494249.664        -616.199          42.000    21674150.266    92324932.773        -480.047          26.000                                                                  
G19  23732199.164   125778979.074        3713.719          38.000    23732209.617   100670570.191        2893.730          25.000                                                                  
G13  22197290.461   117438741.887         447.359          43.000    22197298.625    92277049.918         348.676          25.000                                                                  
G 1  22336670.289   117392264.441        1329.520          41.000    22336682.711    92237467.062        1035.977          25.000    22336682.953    92789773.047        1035.688          44.000  
G18  22646868.234   117484441.609        -407.309          41.000    22646877.617    92346415.457        -317.426          22.000                                                                  
G 7  21944163.242   117521820.879       -2678.379          43.000    21944171.820    92362327.867       -2087.020          26.000    21944172.586    93157035.863       -2087.168          43.000  
G15  24360492.273   125780066.020        1369.926          43.000    24360502.391   100624289.496        1067.508          26.000    24360503.031   101177608.461        1067.648          42.000  
G 8  24614999.109   126033120.297       -3510.547          42.000    24615012.094   100844803.984       -2735.410          27.000    24615012.945   101294621.969       -2735.281          44.000  
R20  19831844.664   108963899.469        2098.676          37.000    19831850.250    83825539.875        1632.172          40.000  
R 9  20030403.945   109128929.676       -1070.383          43.000    20030407.844    83953667.238        -832.762          45.000  
R19  20809201.828   109163581.805       -2540.176          37.000    20809205.516    83991140.629       -1975.590          37.000  
R 1  23273991.312   125893840.227        -943.375          39.000    23273998.992   100723998.797        -733.723          36.000  
R 8  23441654.766   125922287.574       -3027.684          39.000                                                                  
R21  23301044.391   125722426.703        4543.754          39.000    23301049.617   100596969.387        3534.250          40.000  
R10  20055581.844   109052499.719        1791.934          44.000    20055589.148    83913582.719        1393.742          38.000  
S35                                                        41.000  
S33                                                        42.000  
S38                                                        41.000  
S31                                                        41.000  
> 2019  3 26 21 32 57.0000000  0 22                     
G30  20331783.508   109122527.723        -936.887          45.000    20331794.000    83951149.148        -729.996          31.000    20331795.281    84600135.125        -730.105          47.000  
G28                                                        43.000                                                          30.000                                                                  
G17  21591323.656   117342239.012        2273.695          45.000    21591333.102    92193388.164        1771.727          30.000    21591334.086    84376775.145        1771.551          45.000  
G11  21674259.883   117494866.207        -617.660          42.000    21674267.477    92325413.172        -481.352          25.000                                                                  
G19  23731492.438   125775264.473        3713.867          39.000    23731502.719   100667675.719        2893.996          25.000                                                                  
G13  22197205.031   117438294.824         446.133          43.000    22197213.430    92276701.562         347.684          25.000                                                                  
G 1  22336417.648   117390935.414        1328.559          41.000    22336429.703    92236431.449        1035.312          25.000    22336429.234    92788737.445        1034.895          44.000  
G18  22646944.961   117484848.988        -407.895          41.000    22646955.336    92346732.859        -317.738          22.000                                                                  
G 7  21944672.664   117524499.500       -2679.422          43.000    21944681.672    92364415.117       -2087.844          26.000    21944682.734    93159123.090       -2087.625          43.000  
G15  24360231.594   125778696.270        1369.273          43.000    24360241.812   100623222.156        1067.094          26.000    24360242.500   101176541.137        1066.973          42.000  
G 8  24615667.258   126036630.789       -3510.828          42.000    24615680.078   100847539.422       -2735.621          26.000    24615680.930   101297357.414       -2735.672          44.000  
R20  19831452.156   108961801.602        2096.895          36.000    19831457.828    83823908.172        1631.316          40.000  
R 9  20030604.625   109130000.434       -1071.531          43.000    20030608.266    83954500.043        -833.383          44.000  
R19  20809676.188   109166122.434       -2541.781          37.000    20809680.625    83993116.660       -1976.684          38.000  
R 1  23274167.867   125894784.488        -944.773          39.000    23274175.930   100724733.223        -734.773          36.000  
R 8  23442220.016   125925315.922       -3028.984          39.000                                                                  
R21  23300194.922   125717882.883        4543.297          39.000    23300200.484   100593435.320        3533.977          40.000  
R10  20055245.594   109050708.086        1791.172          44.000    20055253.086    83912189.219        1393.156          38.000  
S35                                                        41.000  
S33                                                        42.000  
S38                                                        42.000  
S31                                                        41.000  
> 2019  3 26 21 32 58.0000000  0 22                     
G30  20331961.688   109123463.926        -937.277          45.000    20331972.172    83951878.652        -730.352          31.000    20331973.273    84600864.633        -730.410          47.000  
G28                                                        43.000                                                          29.000                                                                  
G17  21590890.820   117339964.574        2273.133          45.000    21590900.297    92191615.867        1771.297          30.000    21590900.852    84375002.832        1771.520          45.000  
G11  21674377.148   117495482.863        -617.398          41.000    21674384.742    92325893.699        -481.141          26.000                                                                  
G19  23730785.883   125771549.477        3713.996          39.000    23730795.641   100664780.891        2894.039          24.000                                                                  
G13  22197119.500   117437847.895         445.816          43.000    22197128.445    92276353.324         347.348          25.000                                                                  
G 1  22336164.617   117389606.477        1327.695          40.000    22336176.664    92235395.922        1034.582          25.000    22336176.445    92787701.902        1034.754          44.000  
G18  22647023.406   117485256.562        -408.824          41.000    22647032.844    92347050.441        -318.434          21.000                                                                  
G 7  21945182.633   117527177.965       -2679.312          43.000    21945191.469    92366502.227       -2087.770          26.000    21945192.172    93161210.211       -2088.070          43.000  
G15  24359970.523   125777326.586        1368.422          43.000    24359981.016   100622154.902        1066.344          26.000    24359982.055   101175473.859        1066.055          43.000  
G 8  24616335.258   126040140.816       -3510.871          42.000    24616348.000   100850274.516       -2735.750          26.000    24616349.047   101300092.500       -2736.031          44.000  
R20  19831059.570   108959703.992        2096.289          37.000    19831065.656    83822276.719        1630.164          41.000  
R 9  20030805.180   109131071.082       -1071.637          44.000    20030808.922    83955332.773        -833.637          45.000  
R19  20810151.445   109168663.219       -2542.637          37.000    20810155.266    83995092.828       -1977.277          37.000  
R 1  23274344.500   125895728.938        -945.781          39.000    23274352.547   100725467.789        -735.582          36.000  
R 8  23442785.539   125928344.012       -3029.539          38.000    23442787.727   100753988.4341      -2356.074          38.000  
R21  23299345.844   125713338.625        4543.457          39.000    23299351.461   100589900.910        3533.723          40.000  
R10  20054909.586   109048916.219        1790.645          44.000    20054917.289    83910795.551        1392.723          38.000  
S35                                                        41.000  
S33                                                        42.000  
S38                                                        42.000  
S31                                                        41.000  
> 2019  3 26 21 32 59.0000000  0 23                     
G30  20332139.641   109124400.852        -938.137          44.000    20332150.438    83952608.719        -730.988          31.000    20332152.125    84601594.699        -730.758          46.000  
G28                                                        43.000                                                          29.000                                                                  
G17  21590458.289   117337690.730        2272.914          45.000    21590467.516    92189844.051        1771.090          30.000    21590468.000    84373231.023        1770.820          45.000  
G11  21674493.875   117496100.398        -618.555          42.000    21674502.188    92326374.906        -482.035          26.000                                                                  
G19  23730080.195   125767834.863        3713.844          38.000    23730088.906   100661886.402        2893.945          24.000                                                                  
G13  22197034.383   117437401.820         444.684          43.000    22197043.656    92276005.703         346.512          25.000                                                                  
G 1  22335911.750   117388278.359        1326.934          40.000    22335923.883    92234361.023        1033.973          25.000    22335923.977    92786666.996        1033.957          44.000  
G18  22647100.852   117485665.027        -409.891          40.000    22647110.656    92347368.797        -319.480          22.000                                                                  
G 7  21945692.125   117529857.027       -2680.195          43.000    21945701.219    92368589.785       -2088.469          26.000    21945702.367    93163297.785       -2088.297          42.000  
G15  24359710.141   125775957.641        1367.492          42.000    24359720.547   100621088.148        1065.516          26.000    24359721.219   101174407.125        1065.816          42.000  
G 8  24617003.344   126043651.094       -3511.062          41.000    24617016.008   100853009.789       -2735.859          26.000    24617016.828   101302827.793       -2736.184          44.000  
R20  19830667.648   108957607.371        2094.996          37.000    19830673.664    83820646.016        1629.523          41.000  
R 9  20031005.648   109132142.348       -1072.188          43.000    20031009.586    83956165.973        -833.863          45.000  
R19  20810625.812   109171204.867       -2542.996          37.000    20810630.266    83997069.676       -1978.246          37.000  
R 1  23274521.492   125896674.344        -946.750          39.000    23274529.078   100726203.094        -736.297          36.000  
R 8  23443350.672   125931372.645       -3029.984          38.000    23443353.594   100756344.008       -2356.656          37.000  
R11                                                        41.000                                                          38.000  
R21  23298496.438   125708794.664        4544.270          39.000    23298502.469   100586366.754        3533.262          39.000  
R10  20054573.461   109047124.824        1790.359          44.000    20054581.227    83909402.246        1392.465          37.000  
S35                                                        41.000  
S33                                                        43.000  
S38                                                        42.000  
S31                                                        41.000  
> 2019  3 26 21 33  0.0000000  0 23                     
G30  20332318.766   109125339.656        -938.305          45.000    20332329.133    83953340.250        -731.098          31.000    20332330.320    84602326.242        -731.281          47.000  
G28                                                        43.000                                                          29.000                                                                  
G17  21590025.695   117335418.668        2272.691          45.000    21590035.180    92188073.598        1770.953          30.000    21590035.594    84371460.586        1770.785          45.000  
G11  21674611.312   117496719.934        -618.859          42.000    21674620.086    92326857.660        -482.172          25.000                                                                  
G19  23729373.969   125764121.801        3713.629          38.000    23729382.297   100658993.094        2893.738          23.000                                                                  
G13  22196950.250   117436957.758         444.605          43.000    22196959.141    92275659.691         346.445          25.000                                                                  
G 1  22335658.727   117386952.176        1326.605          41.000    22335671.453    92233327.617        1033.723          25.000    22335672.031    92785633.613        1033.781          44.000  
G18  22647178.531   117486075.539        -410.066          40.000    22647188.688    92347688.590        -319.477          21.000                                                                  
G 7  21946202.141   117532537.824       -2680.605          43.000    21946211.500    92370678.746       -2088.789          25.000    21946212.250    93165386.715       -2088.590          43.000  
G15  24359450.266   125774590.582        1367.609          43.000    24359460.242   100620022.914        1065.582          25.000    24359461.094   101173341.895        1065.473          43.000  
G 8  24617671.000   126047162.773       -3510.949          42.000    24617684.289   100855746.152       -2735.891          26.000    24617685.344   101305564.160       -2735.820          44.000  
R20  19830275.906   108955512.949        2094.820          37.000    19830281.789    83819017.008        1629.355          41.000  
R 9  20031207.008   109133215.398       -1072.336          44.000    20031210.500    83957000.566        -834.195          44.000  
R19  20811101.570   109173748.613       -2543.219          37.000    20811105.688    83999048.129       -1977.914          38.000  
R 1  23274698.234   125897621.816        -946.973          39.000    23274706.203   100726940.031        -736.508          37.000  
R 8  23443916.484   125934402.961       -3030.152          38.000    23443919.891   100758700.938       -2356.594          38.000  
R11                                                        41.000                                                          39.000  
R21  23297647.570   125704252.324        4543.379          40.000    23297653.516   100582833.793        3533.652          40.000  
R10  20054237.828   109045335.070        1790.355          44.000    20054245.328    83908010.211        1392.496          37.000  
S35                                                        41.000  
S33                                                        42.000  
S38                                                        41.000  
S31                                                        41.000  
> 2019  3 26 21 33  1.0000000  0 23                     
G30  20332497.406   109126277.969        -938.883          45.000    20332507.711    83954071.402        -731.543          32.000    20332508.945    84603057.395        -731.750          47.000  
G28                                                        43.000                                                          30.000                                                                  
G17  21589593.281   117333146.012        2272.266          45.000    21589602.719    92186302.703        1770.617          30.000    21589603.125    84369689.688        1770.676          45.000  
G11  21674729.523   117497339.129        -619.676          42.000    21674738.023    92327340.145        -482.797          25.000                                                                  
G19  23728666.430   125760407.879        3713.848          39.000    23728675.430   100656099.133        2893.977          24.000                                                                  
G13  22196865.719   117436513.340         443.805          43.000    22196874.508    92275313.391         345.922          25.000                                                                  
G 1  22335406.609   117385625.578        1326.195          41.000    22335418.883    92232293.934        1033.414          25.000    22335418.883    92784599.906        1033.301          44.000  
G18  22647256.773   117486485.734        -410.730          41.000    22647266.508    92348008.230        -320.121          22.000                                                                  
G 7  21946712.219   117535217.977       -2680.555          43.000    21946721.469    92372767.176       -2088.773          25.000    21946722.398    93167475.145       -2088.691          43.000  
G15  24359189.922   125773223.074        1367.070          43.000    24359199.797   100618957.328        1065.195          25.000    24359200.938   101172276.316        1065.070          42.000  
G 8  24618338.672   126050673.484       -3511.016          42.000    24618352.570   100858481.766       -2735.840          25.000    24618353.484   101308299.773       -2735.840          44.000  
R20  19829884.469   108953418.238        2094.660          37.000    19829890.164    83817387.824        1628.953          40.000  
R 9  20031407.719   109134287.812       -1072.695          43.000    20031411.211    83957834.672        -834.590          44.000  
R19  20811577.172   109176292.008       -2543.832          38.000    20811581.289    84001026.359       -1978.941          38.000  
R 1  23274874.812   125898569.020        -947.992          39.000    23274883.664   100727676.734        -737.363          36.000  
R 8  23444481.992   125937432.543       -3030.273          38.000    23444485.484   100761057.289       -2356.613          37.000  
R11                                                        41.000                                                          39.000  
R21  23296798.562   125699709.047        4542.852          39.000    23296804.594   100579300.117        3533.277          40.000  
R10  20053902.016   109043544.605        1789.941          44.000    20053909.367    83906617.629        1392.203          37.000  
S35                                                        41.000  
S33                                                        42.000  
S38                                                        41.000  
S31                                                        41.000  
> 2019  3 26 21 33  2.0000000  0 23                     
G30  20332675.812   109127217.363        -939.203          45.000    20332686.414    83954803.395        -731.867          31.000    20332687.477    84603789.383        -731.758          47.000  
G28                                                        43.000                                                          29.000                                                                  
G17  21589160.961   117330874.344        2271.770          45.000    21589170.352    92184532.578        1770.152          30.000    21589171.016    84367919.547        1770.484          45.000  
G11  21674847.984   117497959.523        -620.398          41.000    21674855.930    92327823.547        -483.438          25.000                                                                  
G19  23727959.906   125756694.738        3713.496          38.000    23727968.891   100653205.762        2893.641          24.000                                                                  
G13  22196781.430   117436070.141         442.988          44.000    22196789.812    92274968.031         345.289          25.000                                                                  
G 1  22335154.703   117384300.152        1325.039          41.000    22335166.570    92231261.129        1032.523          25.000    22335166.602    92783567.109        1032.797          44.000  
G18  22647334.781   117486897.180        -411.535          41.000    22647344.969    92348328.863        -320.535          22.000                                                                  
G 7  21947222.445   117537899.059       -2680.766          43.000    21947231.461    92374856.324       -2088.918          25.000    21947232.859    93169564.309       -2089.113          43.000  
G15  24358930.508   125771856.672        1366.293          43.000    24358939.531   100617892.598        1064.613          26.000    24358941.086   101171211.574        1064.836          42.000  
G 8  24619007.500   126054184.812       -3511.051          42.000    24619020.680   100861217.879       -2735.891          26.000    24619021.414   101311035.875       -2736.215          44.000  
R20  19829493.141   108951324.980        2093.230          37.000    19829498.914    83815759.703        1628.227          41.000  
R 9  20031608.883   109135361.281       -1073.309          43.000    20031612.391    83958669.598        -835.133          45.000  
R19  20812053.219   109178836.727       -2544.676          37.000    20812056.805    84003005.555       -1979.023          38.000  
R 1  23275052.453   125899517.555        -948.383          38.000    23275061.531   100728414.477        -737.562          36.000  
R 8  23445047.383   125940463.133       -3030.531          38.000    23445051.250   100763414.383       -2356.566          38.000  
R11                                                        41.000                                                          39.000  
R21  23295949.258   125695166.426        4542.855          39.000    23295955.750   100575766.977        3533.141          40.000  
R10  20053566.297   109041754.949        1789.797          44.000    20053574.000    83905225.672        1392.055          38.000  
S35                                                        41.000  
S33                                                        42.000  
S38                                                        42.000  
S31                                                        41.000  
> 2019  3 26 21 33  3.0000000  0 23                     
G30  20332855.305   109128157.945        -939.785          45.000    20332865.445    83955536.336        -732.305          31.000    20332866.000    84604522.312        -732.422          47.000  
G28                                                        43.000                                                          30.000                                                                  
G17  21588729.273   117328603.766        2271.363          45.000    21588738.234    92182763.301        1769.961          30.000    21588738.914    84366150.285        1769.715          45.000  
G11  21674966.773   117498581.277        -621.234          42.000    21674974.102    92328308.059        -484.078          26.000                                                                  
G19  23727252.984   125752982.441        3713.047          39.000    23727262.375   100650313.078        2893.340          24.000                                                                  
G13  22196697.367   117435628.250         442.699          43.000    22196705.609    92274623.703         344.910          25.000                                                                  
G 1  22334902.617   117382975.988        1324.699          41.000    22334914.414    92230229.293        1032.125          25.000    22334914.906    92782535.285        1032.391          44.000  
G18  22647413.844   117487309.957        -412.051          41.000    22647423.438    92348650.484        -321.098          23.000                                                                  
G 7  21947733.234   117540581.219       -2681.168          43.000    21947741.938    92376946.297       -2089.285          26.000    21947743.438    93171654.301       -2089.297          42.000  
G15  24358670.438   125770491.477        1365.840          43.000    24358679.953   100616828.820        1064.328          26.000    24358681.602   101170147.801        1064.383          43.000  
G 8  24619675.992   126057696.840       -3511.199          42.000    24619688.977   100863954.520       -2735.996          26.000    24619689.398   101313772.520       -2735.992          44.000  
R20  19829102.188   108949233.215        2092.207          37.000    19829107.719    83814132.773        1627.066          40.000  
R 9  20031809.969   109136435.859       -1074.285          44.000    20031813.664    83959505.355        -834.855          44.000  
R19  20812529.766   109181382.781       -2545.418          37.000    20812533.062    84004985.797       -1979.430          38.000  
R 1  23275230.289   125900467.438        -949.207          38.000    23275238.734   100729153.273        -738.277          36.000  
R 8  23445613.539   125943494.676       -3030.645          38.000    23445617.320   100765772.273       -2356.773          38.000  
R11                                                        41.000                                                          39.000  
R21  23295100.695   125690624.613        4542.352          40.000    23295106.969   100572234.453        3533.367          40.000  
R10  20053230.750   109039966.246        1789.773          45.000    20053238.055    83903834.453        1392.070          38.000  
S35                                                        42.000  
S33                                                        43.000  
S38                                                        42.000  
S31                                                        42.000  
> 2019  3 26 21 33  4.0000000  0 23                     
G30  20333033.914   109129097.855        -940.441          45.000    20333044.344    83956268.723        -732.762          31.000    20333045.797    84605254.711        -732.812          47.000  
G28                                                        43.000                                                          29.000                                                                  
G17  21588296.867   117326332.418        2270.422          45.000    21588305.992    92180993.422        1769.172          30.000    21588307.062    84364380.391        1769.184          45.000  
G11  21675084.422   117499202.465        -622.105          42.000    21675092.312    92328792.094        -484.676          26.000                                                                  
G19  23726546.094   125749269.129        3712.637          38.000    23726555.781   100647419.629        2892.859          24.000                                                                  
G13  22196612.812   117435185.816         441.828          43.000    22196621.312    92274278.969         344.309          25.000                                                                  
G 1  22334650.359   117381651.223        1324.184          41.000    22334662.242    92229197.031        1031.992          25.000    22334662.750    92781503.016        1031.613          44.000  
G18  22647492.156   117487722.246        -412.980          40.000    22647501.906    92348971.801        -321.777          21.000                                                                  
G 7  21948242.969   117543262.547       -2681.832          43.000    21948252.094    92379035.664       -2089.711          26.000    21948253.180    93173743.645       -2089.414          43.000  
G15  24358410.258   125769125.648        1365.199          43.000    24358420.180   100615764.535        1063.824          26.000    24358420.820   101169083.512        1063.770          42.000  
G 8  24620343.930   126061207.711       -3511.238          42.000    24620357.000   100866690.250       -2736.031          27.000    24620357.828   101316508.273       -2736.148          44.000  
R20  19828710.266   108947141.004        2091.043          38.000    19828716.352    83812505.500        1626.738          40.000  
R 9  20032011.164   109137509.613       -1074.164          44.000    20032014.578    83960340.523        -835.809          44.000  
R19  20813004.969   109183928.297       -2545.672          37.000    20813009.094    84006965.676       -1980.781          38.000  
R 1  23275408.164   125901416.840        -950.316          39.000    23275416.430   100729891.707        -739.102          35.000  
R 8  23446179.492   125946525.391       -3031.480          38.000    23446182.844   100768129.477       -2357.402          38.000  
R11                                                        41.000                                                          38.000  
R21  23294252.016   125686081.680        4542.938          40.000    23294257.719   100568701.074        3532.859          40.000  
R10  20052894.930   109038176.605        1789.137          45.000    20052902.133    83902442.520        1391.543          38.000  
S35                                                        42.000  
S33                                                        42.000  
S38                                                        42.000  
S31                                                        42.000  
> 2019  3 26 21 33  5.0000000  0 23                     
G30  20333213.438   109130037.906        -941.281          45.000    20333223.289    83957001.238        -733.496          32.000    20333224.336    84605987.211        -733.238          47.000  
G28                                                        43.000                                                          29.000                                                                  
G17  21587864.109   117324061.086        2270.102          45.000    21587873.773    92179223.543        1768.906          30.000    21587875.172    84362610.523        1769.039          45.000  
G11  21675203.367   117499823.914        -622.340          42.000    21675210.500    92329276.328        -485.051          26.000                                                                  
G19  23725840.445   125745555.621        3712.168          39.000    23725848.977   100644525.969        2892.617          24.000                                                                  
G13  22196529.109   117434743.668         440.730          43.000    22196537.352    92273934.445         343.344          24.000                                                                  
G 1  22334398.641   117380326.680        1323.242          41.000    22334410.117    92228164.930        1031.102          24.000    22334410.383    92780470.910        1030.918          44.000  
G18  22647570.500   117488134.855        -413.574          40.000    22647580.430    92349293.277        -322.285          22.000                                                                  
G 7  21948752.953   117545943.871       -2682.246          43.000    21948762.414    92381125.008       -2089.949          25.000    21948763.758    93175832.992       -2089.855          43.000  
G15  24358150.828   125767759.988        1364.160          43.000    24358160.438   100614700.387        1062.980          26.000    24358161.570   101168019.348        1063.449          42.000  
G 8  24621012.484   126064718.250       -3511.695          42.000    24621024.945   100869425.762       -2736.422          27.000    24621026.109   101319243.738       -2736.012          44.000  
R20  19828319.359   108945049.281        2089.750          36.000    19828325.273    83810878.590        1625.891          40.000  
R 9  20032212.250   109138583.395       -1075.207          43.000    20032215.773    83961175.688        -836.398          45.000  
R19  20813480.742   109186474.164       -2546.730          38.000    20813485.352    84008945.789       -1981.312          38.000  
R 1  23275585.891   125902366.559        -950.234          39.000    23275593.984   100730630.363        -739.098          36.000  
R 8  23446745.227   125949555.984       -3032.535          38.000    23446748.883   100770486.613       -2358.195          38.000  
R11                                                        41.000                                                          39.000  
R21  23293403.023   125681538.426        4542.863          40.000    23293408.742   100565167.465        3532.973          40.000  
R10  20052559.336   109036386.848        1788.363          44.000    20052566.266    83901050.480        1390.906          38.000  
S35                                                        42.000  
S33                                                        43.000  
S38                                                        42.000  
S31                                                        41.000  
> 2019  3 26 21 33  6.0000000  0 23                     
G30  20333392.789   109130980.312        -941.332          45.000    20333402.711    83957735.578        -733.461          31.000    20333403.477    84606721.562        -733.527          47.000  
G28                                                        43.000                                                          30.000                                                                  
G17  21587432.898   117321792.023        2269.887          45.000    21587441.938    92177455.453        1768.758          29.000    21587442.641    84360842.430        1768.855          45.000  
G11  21675321.234   117500447.898        -623.246          42.000    21675329.547    92329762.566        -485.641          25.000                                                                  
G19  23725134.000   125741844.109        3712.848          38.000    23725142.820   100641633.891        2893.066          24.000                                                                  
G13  22196445.094   117434304.023         440.457          43.000    22196453.602    92273591.863         343.223          25.000                                                                  
G 1  22334147.172   117379004.582        1322.859          41.000    22334158.500    92227134.695        1030.770          25.000    22334159.547    92779440.684        1030.996          43.000  
G18  22647649.695   117488550.008        -414.641          40.000    22647659.320    92349616.789        -322.938          20.000                                                                  
G 7  21949264.000   117548627.441       -2682.781          43.000    21949273.188    92383216.086       -2090.461          26.000    21949273.867    93177924.074       -2090.195          42.000  
G15  24357891.242   125766396.715        1364.078          43.000    24357901.039   100613638.086        1062.945          26.000    24357901.477   101166957.066        1063.109          42.000  
G 8  24621680.172   126068230.645       -3511.348          42.000    24621693.281   100872162.676       -2736.066          26.000    24621694.359   101321980.672       -2736.129          44.000  
R20  19827929.047   108942960.180        2090.758          37.000    19827934.523    83809253.777        1624.930          41.000  
R 9  20032413.773   109139659.492       -1075.613          44.000    20032417.430    83962012.629        -836.277          44.000  
R19  20813957.422   109189022.574       -2548.250          38.000    20813961.641    84010927.883       -1981.816          38.000  
R 1  23275764.227   125903318.938        -951.742          39.000    23275772.203   100731371.102        -740.219          36.000  
R 8  23447311.477   125952588.730       -3031.547          39.000    23447315.258   100772845.426       -2358.125          38.000  
R11                                                        41.000                                                          39.000  
R21  23292554.547   125676997.254        4542.645          40.000    23292560.188   100561635.410        3533.137          40.000  
R10  20052223.984   109034599.227        1788.641          44.000    20052231.148    83899660.109        1391.191          38.000  
S35                                                        42.000  
S33                                                        42.000  
S38                                                        42.000  
S31                                                        41.000  
> 2019  3 26 21 33  7.0000000  0 22                     
G30  20333571.547   109131922.316        -942.406          45.000    20333581.938    83958469.605        -734.332          32.000    20333582.617    84607455.590        -734.355          47.000  
G28                                                        43.000                                                          30.000                                                                  
G17  21587000.906   117319522.441        2269.309          45.000    21587009.977    92175686.957        1768.273          30.000    21587010.492    84359073.918        1768.398          45.000  
G11  21675439.945   117501071.582        -624.266          42.000    21675448.211    92330248.547        -486.324          26.000                                                                  
G19  23724427.641   125738131.871        3712.004          39.000    23724436.266   100638741.234        2892.500          24.000                                                                  
G13  22196361.547   117433864.098         439.508          44.000    22196369.836    92273249.047         342.496          25.000                                                                  
G 1  22333895.172   117377682.148        1321.957          41.000    22333906.617    92226104.230        1030.109          25.000    22333907.859    92778410.219        1030.195          43.000  
G18  22647728.453   117488964.891        -415.438          40.000    22647738.211    92349940.059        -323.648          22.000                                                                  
G 7  21949774.555   117551310.445       -2683.504          43.000    21949783.766    92385306.746       -2090.969          26.000    21949784.398    93180014.730       -2090.898          43.000  
G15  24357631.172   125765033.043        1363.402          43.000    24357641.430   100612575.508        1062.344          26.000    24357643.297   101165894.480        1062.074          43.000  
G 8  24622347.836   126071742.137       -3511.594          42.000    24622361.398   100874898.898       -2736.336          26.000    24622362.133   101324716.887       -2736.121          44.000  
R20  19827538.125   108940871.016        2088.113          37.000    19827543.758    83807628.844        1624.355          40.000  
R 9  20032614.805   109140735.016       -1075.895          43.000    20032618.695    83962849.160        -836.812          45.000  
R19  20814434.062   109191570.727       -2549.090          38.000    20814437.750    84012909.773       -1982.160          38.000  
R 1  23275942.820   125904271.043        -952.504          39.000    23275950.727   100732111.625        -740.773          36.000  
R 8  23447877.344   125955620.840       -3032.000          38.000    23447881.727   100775203.719       -2358.434          38.000  
R21  23291705.656   125672455.219        4541.965          40.000    23291711.500   100558102.727        3532.664          40.000  
R10  20051888.539   109032810.930        1787.703          44.000    20051895.656    83898269.219        1390.422          38.000  
S35                                                        41.000  
S33                                                        42.000  
S38                                                        42.000  
S31                                                        41.000  
> 2019  3 26 21 33  8.0000000  0 22                     
G30  20333750.492   109132863.137        -942.617          45.000    20333760.859    83959202.711        -734.555          32.000    20333761.906    84608188.699        -734.523          46.000  
G28                                                        43.000                                                          30.000                                                                  
G17  21586568.773   117317251.578        2269.230          45.000    21586577.742    92173917.438        1768.285          30.000    21586578.844    84357304.434        1767.918          44.000  
G11  21675558.852   117501694.227        -624.824          42.000    21675566.742    92330733.711        -486.922          26.000                                                                  
G19  23723720.000   125734418.082        3711.980          38.000    23723729.438   100635847.355        2892.562          24.000                                                                  
G13  22196278.305   117433423.125         438.809          43.000    22196285.805    92272905.441         341.828          25.000                                                                  
G 1  22333643.141   117376358.590        1321.543          40.000    22333654.648    92225072.902        1029.543          25.000    22333655.570    92777378.875        1030.289          43.000  
G18  22647807.172   117489378.762        -415.973          40.000    22647817.016    92350262.523        -324.074          22.000                                                                  
G 7  21950285.016   117553992.105       -2683.363          43.000    21950294.070    92387396.355       -2091.016          26.000    21950294.250    93182104.336       -2090.840          42.000  
G15  24357371.812   125763668.227        1363.000          43.000    24357381.570   100611512.000        1062.008          26.000    24357383.461   101164830.969        1062.066          42.000  
G 8  24623016.414   126075251.973       -3511.223          41.000    24623029.273   100877633.844       -2735.934          26.000    24623030.047   101327451.828       -2736.090          43.000  
R20  19827146.906   108938780.922        2088.148          37.000    19827152.875    83806003.203        1624.176          40.000  
R 9  20032815.875   109141809.258       -1075.941          42.000    20032819.969    83963684.688        -837.055          44.000  
R19  20814910.656   109194117.840       -2547.609          37.000    20814914.008    84014890.887       -1983.066          37.000  
R 1  23276121.031   125905222.137        -953.090          39.000    23276129.156   100732851.359        -741.293          35.000  
R 8  23448443.539   125958651.551       -3031.941          38.000    23448447.312   100777560.953       -2359.062          38.000  
R21  23290857.164   125667911.605        4542.000          40.000    23290862.172   100554568.797        3532.254          39.000  
R10  20051552.742   109031021.188        1788.102          44.000    20051560.047    83896877.188        1390.766          37.000  
S35                                                        41.000  
S33                                                        42.000  
S38                                                        41.000  
S31                                                        41.000  
> 2019  3 26 21 33  9.0000000  0 22                     
G30  20333929.859   109133806.859        -943.289          45.000    20333940.438    83959938.090        -734.984          31.000    20333941.297    84608924.066        -735.109          47.000  
G28                                                        43.000                                                          29.000                                                                  
G17  21586137.250   117314983.520        2268.547          45.000    21586146.125    92172150.133        1767.719          29.000    21586147.234    84355537.109        1767.320          45.000  
G11  21675677.836   117502319.906        -625.418          42.000    21675685.609    92331221.273        -487.387          25.000                                                                  
G19  23723013.227   125730706.883        3711.895          38.000    23723023.188   100632955.555        2892.434          23.000                                                                  
G13  22196194.180   117432985.195         437.922          44.000    22196202.547    92272564.191         341.184          25.000                                                                  
G 1  22333391.945   117375038.031        1320.922          41.000    22333403.367    92224043.887        1029.234          24.000    22333403.609    92776349.867        1029.160          44.000  
G18  22647886.984   117489795.664        -416.262          41.000    22647896.258    92350587.422        -324.488          21.000                                                                  
G 7  21950796.070   117556676.547       -2683.918          43.000    21950804.703    92389488.121       -2091.348          25.000    21950806.008    93184196.113       -2091.598          43.000  
G15  24357112.164   125762306.332        1362.266          43.000    24357122.680   100610450.805        1061.555          24.000    24357123.703   101163769.762        1061.672          43.000  
G 8  24623684.742   126078764.250       -3511.891          42.000    24623697.688   100880370.695       -2736.414          26.000    24623698.516   101330188.656       -2736.336          44.000  
R20  19826756.930   108936694.066        2086.074          38.000    19826762.539    83804380.082        1623.469          41.000  
R 9  20033017.430   109142886.324       -1076.695          43.000    20033021.594    83964522.402        -837.641          45.000  
R19  20815387.172   109196668.125       -2549.891          38.000    20815390.453    84016874.414       -1983.570          38.000  
R 1  23276299.438   125906176.391        -953.793          39.000    23276306.875   100733593.566        -741.789          35.000  
R 8  23449010.172   125961685.047       -3033.336          39.000    23449013.781   100779920.340       -2359.219          38.000  
R21  23290008.414   125663370.516        4541.555          40.000    23290013.141   100551036.852        3532.074          39.000  
R10  20051217.406   109029234.164        1787.613          44.000    20051224.945    83895487.285        1390.367          38.000  
S35                                                        41.000  
S33                                                        42.000  
S38                                                        41.000  
S31                                                        41.000  
> 2019  3 26 21 33 10.0000000  0 22                     
G30  20334109.156   109134749.949        -943.363          45.000    20334119.922    83960672.949        -735.098          31.000    20334121.219    84609658.930        -734.816          47.000  
G28                                                        43.000                                                          30.000                                                                  
G17  21585705.805   117312714.711        2268.473          45.000    21585714.438    92170382.215        1767.633          30.000    21585715.234    84353769.203        1767.887          45.000  
G11  21675797.125   117502945.090        -625.590          42.000    21675804.578    92331708.438        -487.473          26.000                                                                  
G19  23722307.438   125726994.707        3710.141          38.000    23722316.711   100630062.945        2890.879          24.000                                                                  
G13  22196110.344   117432546.746         438.109          43.000    22196119.008    92272222.535         341.438          25.000                                                                  
G 1  22333140.562   117373716.898        1320.914          41.000    22333151.867    92223014.449        1029.258          24.000    22333152.898    92775320.422        1029.094          44.000  
G18  22647966.789   117490212.145        -416.910          41.000    22647975.188    92350911.941        -324.875          21.000                                                                  
G 7  21951306.664   117559360.211       -2683.727          43.000    21951315.320    92391579.293       -2091.223          26.000    21951316.430    93186287.277       -2091.414          43.000  
G15  24356852.922   125760943.836        1362.141          43.000    24356863.484   100609389.105        1061.441          25.000    24356865.195   101162708.082        1061.512          43.000  
G 8  24624353.141   126082275.379       -3510.887          42.000    24624365.664   100883106.609       -2735.691          26.000    24624367.156   101332924.613       -2735.785          44.000  
R20  19826366.289   108934606.785        2087.227          37.000    19826372.461    83802756.680        1623.012          40.000  
R 9  20033219.039   109143962.645       -1076.566          43.000    20033223.125    83965359.527        -837.191          45.000  
R19  20815863.664   109199217.898       -2550.195          38.000    20815867.227    84018857.562       -1983.750          38.000  
R 1  23276477.969   125907130.176        -954.000          40.000    23276485.414   100734335.387        -741.973          35.000  
R 8  23449576.562   125964717.695       -3032.938          38.000    23449580.086   100782279.129       -2360.211          38.000  
R21  23289159.633   125658828.324        4541.871          40.000    23289164.508   100547504.035        3533.031          40.000  
R10  20050882.188   109027446.227        1788.059          45.000    20050889.195    83894096.664        1390.695          38.000  
S35                                                        41.000  
S33                                                        42.000  
S38                                                        41.000  
S31                                                        41.000  
> 2019  3 26 21 33 11.0000000  0 22                     
G30  20334288.797   109135693.867        -944.203          45.000    20334299.539    83961408.484        -735.703          31.000    20334300.742    84610394.461        -735.836          47.000  
G28                                                        43.000                                                          29.000                                                                  
G17  21585273.930   117310446.637        2267.672          45.000    21585282.664    92168614.898        1767.016          30.000    21585283.797    84352001.879        1766.949          45.000  
G11  21675915.664   117503571.234        -626.457          42.000    21675923.781    92332196.332        -488.152          25.000                                                                  
G19  23721600.922   125723283.012        3710.867          39.000    23721610.484   100627170.727        2891.684          23.000                                                                  
G13  22196027.414   117432109.289         436.883          43.000    22196035.852    92271881.652         340.438          26.000                                                                  
G 1  22332889.070   117372396.691        1320.059          40.000    22332900.547    92221985.707        1028.574          25.000    22332901.875    92774291.688        1028.586          44.000  
G18  22648045.688   117490629.625        -417.715          41.000    22648054.781    92351237.273        -325.336          21.000                                                                  
G 7  21951817.391   117562044.566       -2684.797          43.000    21951826.070    92393670.988       -2091.992          26.000    21951827.312    93188378.980       -2092.062          43.000  
G15  24356594.516   125759582.215        1361.109          43.000    24356604.383   100608328.105        1060.562          26.000    24356605.719   101161647.074        1060.512          43.000  
G 8  24625021.461   126085786.863       -3511.449          42.000    24625033.703   100885842.836       -2736.195          26.000    24625034.797   101335660.836       -2736.262          44.000  
R20  19825976.438   108932520.668        2085.816          37.000    19825982.344    83801134.137        1622.227          40.000  
R 9  20033420.844   109145039.695       -1077.379          43.000    20033424.750    83966197.242        -837.891          45.000  
R19  20816340.039   109201768.648       -2550.887          38.000    20816343.750    84020841.504       -1984.750          38.000  
R 1  23276656.734   125908085.016        -955.129          39.000    23276663.781   100735078.051        -742.941          36.000  
R 8  23450142.586   125967750.996       -3033.316          39.000    23450146.602   100784638.289       -2359.832          38.000  
R21  23288311.242   125654286.602        4541.602          40.000    23288315.758   100543971.582        3532.426          39.000  
R10  20050546.828   109025658.934        1787.160          44.000    20050553.672    83892706.547        1389.988          37.000  
S35                                                        41.000  
S33                                                        42.000  
S38                                                        42.000  
S31                                                        41.000  
> 2019  3 26 21 33 12.0000000  0 22                     
G30  20334468.398   109136638.027        -944.867          45.000    20334479.070    83962144.191        -736.262          31.000    20334480.211    84611130.172        -736.371          47.000  
G28                                                        43.000                                                          29.000                                                                  
G17  21584842.469   117308178.699        2267.574          45.000    21584851.039    92166847.672        1766.922          30.000    21584851.922    84350234.660        1766.789          45.000  
G11  21676035.211   117504197.781        -627.422          42.000    21676043.062    92332684.559        -488.859          25.000                                                                  
G19  23720895.281   125719571.254        3711.207          38.000    23720904.141   100624278.445        2891.852          24.000                                                                  
G13  22195943.961   117431672.211         436.395          43.000    22195952.656    92271541.094         339.926          25.000                                                                  
G 1  22332637.805   117371076.828        1319.375          41.000    22332649.500    92220957.246        1028.008          25.000    22332650.086    92773263.223        1027.855          44.000  
G18  22648125.180   117491047.520        -418.613          40.000    22648134.070    92351562.895        -326.156          22.000                                                                  
G 7  21952328.203   117564729.039       -2685.184          43.000    21952336.875    92395762.805       -2092.359          26.000    21952338.742    93190470.770       -2092.289          43.000  
G15  24356335.039   125758220.844        1360.750          43.000    24356345.391   100607267.285        1060.383          25.000    24356346.477   101160586.273        1060.133          43.000  
G 8  24625689.523   126089298.133       -3511.895          42.000    24625701.820   100888578.902       -2736.523          26.000    24625702.984   101338396.891       -2736.426          44.000  
R20  19825586.523   108930435.078        2085.012          37.000    19825592.406    83799512.008        1621.488          40.000  
R 9  20033622.539   109146116.914       -1078.078          43.000    20033626.578    83967035.070        -838.176          45.000  
R19  20816817.328   109204319.828       -2551.746          38.000    20816820.922    84022825.758       -1985.164          38.000  
R 1  23276835.414   125909040.312        -955.984          40.000    23276842.836   100735821.055        -743.516          36.000  
R 8  23450709.461   125970784.305       -3033.258          39.000    23450712.766   100786997.504       -2358.590          38.000  
R21  23287462.281   125649744.746        4541.160          40.000    23287466.805   100540439.031        3531.836          39.000  
R10  20050211.477   109023871.625        1786.715          44.000    20050218.727    83891316.418        1389.664          38.000  
S35                                                        41.000  
S33                                                        42.000  
S38                                                        42.000  
S31                                                        41.000  
> 2019  3 26 21 33 13.0000000  0 22                     
G30  20334648.547   109137583.656        -945.594          45.000    20334658.969    83962881.031        -736.746          32.000    20334660.594    84611867.027        -736.746          47.000  
G28                                                        43.000                                                          29.000                                                                  
G17  21584411.141   117305912.145        2266.523          45.000    21584419.773    92165081.539        1766.113          30.000    21584420.922    84348468.508        1766.152          45.000  
G11  21676154.602   117504825.902        -628.328          42.000    21676162.734    92333173.996        -489.625          26.000                                                                  
G19  23720188.797   125715860.582        3710.961          38.000    23720197.805   100621386.996        2891.656          23.000                                                                  
G13  22195861.297   117431236.723         435.605          44.000    22195869.898    92271201.742         339.457          25.000                                                                  
G 1  22332386.859   117369758.492        1318.027          40.000    22332398.734    92219929.961        1027.039          24.000    22332399.750    92772235.949        1027.301          43.000  
G18  22648205.117   117491467.027        -419.258          41.000    22648214.094    92351889.812        -326.566          21.000                                                                  
G 7  21952839.445   117567414.805       -2685.789          43.000    21952847.891    92397855.586       -2092.805          27.000    21952849.141    93192563.574       -2092.695          43.000  
G15  24356076.094   125756860.965        1360.180          43.000    24356086.570   100606207.656        1059.891          25.000    24356087.312   101159526.637        1059.383          43.000  
G 8  24626357.578   126092810.371       -3511.906          42.000    24626370.094   100891315.711       -2736.633          26.000    24626371.492   101341133.699       -2736.594          44.000  
R20  19825196.883   108928351.238        2084.000          38.000    19825202.672    83797891.246        1620.543          41.000  
R 9  20033824.570   109147195.492       -1078.402          43.000    20033828.648    83967873.969        -838.910          45.000  
R19  20817294.461   109206872.734       -2553.629          37.000    20817298.430    84024811.328       -1985.660          38.000  
R 1  23277014.500   125909997.301        -956.758          40.000    23277021.484   100736565.367        -744.109          36.000  
R 8  23451276.094   125973818.941       -3033.867          38.000    23451279.578   100789357.812       -2360.562          37.000  
R21  23286613.742   125645203.934        4541.031          40.000    23286618.273   100536907.293        3531.719          39.000  
R10  20049876.188   109022085.559        1786.125          44.000    20049883.242    83889927.254        1389.215          38.000  
S35                                                        41.000  
S33                                                        42.000  
S38                                                        42.000  
S31                                                        41.000  
> 2019  3 26 21 33 14.0000000  0 22                     
G30  20334827.766   109138528.559        -945.426          44.000    20334838.789    83963617.324        -736.676          31.000    20334840.203    84612603.324        -737.039          47.000  
G28                                                        43.000                                                          30.000                                                                  
G17  21583979.336   117303644.746        2266.867          45.000    21583988.312    92163314.734        1766.336          30.000    21583989.594    84346701.711        1766.547          45.000  
G11  21676274.227   117505453.445        -628.109          42.000    21676282.188    92333662.980        -489.402          26.000                                                                  
G19  23719482.219   125712148.879        3711.168          38.000    23719491.523   100618494.766        2891.801          22.000                                                                  
G13  22195779.117   117430800.660         435.348          44.000    22195786.867    92270861.961         339.184          25.000                                                                  
G 1  22332136.203   117368439.504        1318.102          40.000    22332148.062    92218902.172        1026.992          24.000    22332148.766    92771208.156        1027.355          44.000  
G18  22648284.641   117491885.980        -419.879          41.000    22648293.836    92352216.270        -327.137          22.000                                                                  
G 7  21953350.352   117570099.723       -2685.484          43.000    21953358.781    92399947.730       -2092.523          26.000    21953360.148    93194655.723       -2092.633          43.000  
G15  24355817.586   125755500.406        1359.766          43.000    24355827.664   100605147.461        1059.609          26.000    24355828.250   101158466.445        1059.711          43.000  
G 8  24627026.250   126096321.426       -3511.680          42.000    24627038.180   100894051.578       -2736.414          25.000    24627039.531   101343869.582       -2736.328          44.000  
R20  19824807.055   108926266.922        2083.840          38.000    19824812.812    83796270.102        1620.855          40.000  
R 9  20034026.328   109148273.211       -1078.102          43.000    20034030.305    83968712.203        -838.777          45.000  
R19  20817771.742   109209424.938       -2551.945          38.000    20817775.297    84026796.414       -1985.613          38.000  
R 1  23277193.648   125910953.746        -957.383          40.000    23277200.672   100737309.273        -744.590          36.000  
R 8  23451842.492   125976852.609       -3033.812          39.000    23451846.305   100791717.320       -2359.516          37.000  
R21  23285764.992   125640661.980        4540.934          41.000    23285769.523   100533374.645        3532.324          40.000  
R10  20049540.766   109020298.492        1786.465          44.000    20049548.586    83888537.309        1389.566          38.000  
S35                                                        41.000  
S33                                                        43.000  
S38                                                        42.000  
S31                                                        41.000  
> 2019  3 26 21 33 15.0000000  0 22                     
G30  20335008.000   109139474.438        -946.336          45.000    20335018.805    83964354.375        -737.414          31.000    20335020.102    84613340.359        -737.406          47.000  
G28                                                        43.000                                                          29.000                                                                  
G17  21583548.250   117301378.230        2266.250          45.000    21583557.062    92161548.617        1765.871          30.000    21583557.773    84344935.590        1765.910          45.000  
G11  21676393.711   117506082.102        -629.090          42.000    21676401.883    92334152.855        -490.105          25.000                                                                  
G19  23718776.258   125708437.801        3710.711          38.000    23718784.984   100615603.020        2891.445          23.000                                                                  
G13  22195696.312   117430365.711         434.277          44.000    22195704.125    92270523.023         338.434          25.000                                                                  
G 1  22331885.102   117367121.551        1317.770          40.000    22331897.359    92217875.207        1026.871          24.000    22331898.164    92770181.203        1026.480          44.000  
G18  22648364.727   117492306.066        -420.707          41.000    22648373.844    92352543.574        -327.863          21.000                                                                  
G 7  21953861.891   117572785.469       -2685.816          43.000    21953869.898    92402040.516       -2092.820          26.000    21953871.148    93196748.512       -2093.367          42.000  
G15  24355558.398   125754140.852        1358.984          43.000    24355568.922   100604088.078        1058.969          25.000    24355569.250   101157407.043        1059.141          43.000  
G 8  24627693.734   126099832.965       -3511.750          42.000    24627706.531   100896787.852       -2736.438          26.000    24627707.766   101346605.840       -2736.664          44.000  
R20  19824416.977   108924183.875        2082.664          37.000    19824423.148    83794649.961        1619.875          40.000  
R 9  20034228.336   109149351.836       -1078.805          43.000    20034232.203    83969551.121        -839.145          45.000  
R19  20818249.016   109211978.414       -2552.793          39.000    20818252.984    84028782.418       -1985.789          38.000  
R 1  23277372.445   125911911.363        -957.953          40.000    23277379.742   100738054.086        -745.016          36.000  
R 8  23452409.703   125979887.086       -3035.109          38.000    23452412.625   100794077.516       -2361.512          37.000  
R21  23284916.273   125636120.570        4541.215          41.000    23284920.945   100529842.453        3532.094          40.000  
R10  20049205.703   109018512.160        1786.398          44.000    20049213.406    83887147.938        1389.430          38.000  
S35                                                        41.000  
S33                                                        42.000  
S38                                                        42.000  
S31                                                        42.000  
> 2019  3 26 21 33 16.0000000  0 22                     
G30  20335188.578   109140421.648        -946.996          44.000    20335199.039    83965092.465        -737.871          31.000    20335200.508    84614078.441        -737.867          47.000  
G28                                                        43.000                                                          29.000                                                                  
G17  21583117.031   117299112.941        2265.535          45.000    21583126.055    92159783.457        1765.434          30.000    21583126.625    84343170.438        1765.344          45.000  
G11  21676513.828   117506712.234        -629.965          42.000    21676521.844    92334643.871        -490.816          25.000                                                                  
G19  23718070.570   125704727.715        3710.664          38.000    23718078.977   100612712.066        2891.387          23.000                                                                  
G13  22195613.672   117429932.234         433.441          44.000    22195621.602    92270185.242         337.906          25.000                                                                  
G 1  22331635.180   117365805.039        1316.777          40.000    22331647.086    92216849.359        1025.988          25.000    22331648.133    92769155.340        1025.859          44.000  
G18  22648444.336   117492727.656        -421.609          41.000    22648453.922    92352872.094        -328.551          23.000                                                                  
G 7  21954373.188   117575472.406       -2686.383          43.000    21954381.336    92404134.238       -2093.328          26.000    21954382.508    93198842.230       -2093.754          43.000  
G15  24355300.344   125752782.641        1358.395          43.000    24355310.352   100603029.746        1058.492          26.000    24355311.602   101156348.699        1058.895          43.000  
G 8  24628362.328   126103345.363       -3512.207          42.000    24628374.914   100899524.781       -2736.754          26.000    24628376.367   101349342.770       -2736.703          44.000  
R20  19824028.102   108922102.512        2080.910          37.000    19824034.000    83793031.102        1619.098          40.000  
R 9  20034430.812   109150431.695       -1079.770          43.000    20034434.508    83970391.012        -839.578          45.000  
R19  20818726.781   109214533.352       -2554.203          38.000    20818730.383    84030769.605       -1986.863          38.000  
R 1  23277551.961   125912870.570        -959.883          39.000    23277558.711   100738800.145        -746.535          37.000  
R 8  23452977.078   125982922.637       -3034.832          39.000    23452979.898   100796438.461       -2360.898          37.000  
R21  23284067.625   125631580.160        4540.859          41.000    23284072.508   100526311.027        3531.832          40.000  
R10  20048870.953   109016726.930        1785.734          44.000    20048878.500    83885759.426        1388.906          38.000  
S35                                                        41.000  
S33                                                        43.000  
S38                                                        41.000  
S31                                                        42.000  
> 2019  3 26 21 33 17.0000000  0 22                     
G30  20335368.719   109141368.398        -947.590          44.000    20335379.250    83965830.191        -738.387          32.000    20335380.430    84614816.180        -738.645          46.000  
G28                                                        43.000                                                          29.000                                                                  
G17  21582685.984   117296847.109        2264.922          45.000    21582694.820    92158017.879        1764.820          30.000    21582695.867    84341404.852        1764.844          45.000  
G11  21676633.656   117507342.047        -631.035          42.000    21676641.656    92335134.629        -491.758          26.000                                                                  
G19  23717363.938   125701016.840        3710.051          38.000    23717372.883   100609820.461        2891.012          23.000                                                                  
G13  22195531.242   117429498.430         432.559          43.000    22195539.211    92269847.230         337.004          25.000                                                                  
G 1  22331384.242   117364488.156        1315.484          40.000    22331396.680    92215823.223        1024.980          25.000    22331396.992    92768129.191        1025.184          44.000  
G18  22648524.969   117493148.957        -422.168          41.000    22648534.406    92353200.387        -328.879          21.000                                                                  
G 7  21954884.055   117578158.762       -2687.422          43.000    21954892.672    92406227.508       -2094.199          26.000    21954893.984    93200935.480       -2093.930          43.000  
G15  24355042.188   125751424.012        1357.461          43.000    24355051.781   100601971.051        1057.699          26.000    24355052.703   101155290.035        1058.148          42.000  
G 8  24629030.055   126106856.816       -3511.902          42.000    24629043.117   100902260.973       -2736.504          25.000    24629045.539   101352078.973       -2736.758          44.000  
R20  19823639.039   108920020.938        2080.297          38.000    19823644.812    83791412.113        1618.324          41.000  
R 9  20034632.742   109151510.980       -1080.375          43.000    20034636.695    83971230.449        -840.227          45.000  
R19  20819204.664   109217088.035       -2555.828          38.000    20819207.844    84032756.562       -1988.023          38.000  
R 1  23277731.203   125913829.453        -959.684          39.000    23277737.805   100739545.934        -746.418          36.000  
R 8  23453543.719   125985957.520       -3035.645          39.000    23453546.523   100798798.914       -2360.961          38.000  
R21  23283219.273   125627038.848        4541.016          41.000    23283223.844   100522778.910        3531.480          40.000  
R10  20048535.852   109014940.988        1785.113          44.000    20048543.523    83884370.363        1388.414          38.000  
S35                                                        41.000  
S33                                                        42.000  
S38                                                        41.000  
S31                                                        42.000  
> 2019  3 26 21 33 18.0000000  0 22                     
G30  20335549.258   109142316.227        -948.125          45.000    20335559.555    83966568.762        -738.766          31.000    20335560.523    84615554.738        -738.961          47.000  
G28                                                        43.000                                                          29.000                                                                  
G17  21582254.664   117294582.227        2264.641          45.000    21582263.891    92156253.031        1764.641          30.000    21582264.992    84339640.008        1764.543          45.000  
G11  21676753.664   117507973.051        -631.410          42.000    21676761.805    92335626.320        -491.980          26.000                                                                  
G19  23716657.539   125697306.676        3710.348          39.000    23716666.914   100606929.438        2891.340          23.000                                                                  
G13  22195448.578   117429065.820         432.168          44.000    22195456.945    92269510.137         336.586          26.000                                                                  
G 1  22331134.469   117363172.383        1315.371          40.000    22331146.398    92214797.941        1024.938          24.000    22331146.930    92767103.918        1024.918          44.000  
G18  22648606.359   117493571.500        -423.152          41.000    22648614.773    92353529.637        -329.688          21.000                                                                  
G 7  21955395.320   117580846.035       -2687.820          44.000    21955404.109    92408321.477       -2094.410          25.000    21955404.617    93203029.457       -2094.051          42.000  
G15  24354784.203   125750066.480        1357.109          43.000    24354793.320   100600913.254        1057.457          26.000    24354794.047   101154232.207        1057.938          43.000  
G 8  24629699.422   126110368.859       -3511.965          42.000    24629711.586   100904997.629       -2736.652          26.000    24629712.969   101354815.625       -2736.859          44.000  
R20  19823249.766   108917940.781        2079.148          38.000    19823255.805    83789794.184        1617.270          41.000  
R 9  20034835.000   109152591.211       -1080.488          43.000    20034839.180    83972070.648        -840.398          45.000  
R19  20819682.930   109219643.930       -2555.938          39.000    20819685.578    84034744.500       -1988.398          38.000  
R 1  23277910.531   125914789.695        -961.250          39.000    23277917.922   100740292.785        -747.559          37.000  
R 8  23454110.703   125988993.277       -3035.590          39.000    23454113.648   100801160.086       -2361.980          38.000  
R21  23282370.570   125622498.230        4540.355          41.000    23282375.469   100519247.316        3531.344          40.000  
R10  20048200.945   109013155.887        1784.824          44.000    20048208.320    83882981.953        1388.195          38.000  
S35                                                        41.000  
S33                                                        43.000  
S38                                                        42.000  
S31                                                        42.000  
> 2019  3 26 21 33 19.0000000  0 22                     
G30  20335729.133   109143263.281        -948.812          45.000    20335739.828    83967306.727        -739.414          32.000    20335740.930    84616292.695        -739.066          46.000  
G28  20831863.109   109058048.789         195.691          43.000    20831871.148    83885302.516         152.422          29.000                                                                  
G17  21581823.703   117292316.484        2264.172          45.000    21581832.836    92154487.520        1764.219          30.000    21581833.586    84337874.492        1764.328          45.000  
G11  21676873.625   117508603.438        -632.238          42.000    21676881.719    92336117.555        -492.770          26.000                                                                  
G19  23715951.641   125693595.418        3709.750          38.000    23715961.000   100604037.539        2890.684          24.000                                                                  
G13  22195366.516   117428632.586         431.410          44.000    22195374.695    92269172.547         336.180          25.000                                                                  
G 1  22330883.055   117361855.941        1314.945          40.000    22330895.609    92213772.145        1024.621          25.000    22330895.773    92766078.109        1024.656          44.000  
G18  22648685.406   117493993.457        -423.863          41.000    22648695.016    92353858.430        -330.398          22.000                                                                  
G 7  21955906.703   117583532.379       -2687.793          43.000    21955915.352    92410414.738       -2094.461          26.000    21955916.031    93205122.719       -2094.094          42.000  
G15  24354525.383   125748708.195        1356.715          43.000    24354534.891   100599854.852        1057.199          26.000    24354535.797   101153173.816        1057.320          42.000  
G 8  24630366.766   126113879.660       -3512.211          42.000    24630379.641   100907733.316       -2736.793          26.000    24630380.750   101357551.301       -2736.629          43.000  
R20  19822860.570   108915860.059        2078.473          38.000    19822866.664    83788175.855        1617.234          41.000  
R 9  20035037.000   109153670.559       -1080.488          43.000    20035041.227    83972910.133        -840.680          45.000  
R19  20820160.594   109222199.227       -2556.684          39.000    20820162.945    84036731.949       -1988.773          38.000  
R 1  23278090.039   125915749.262        -961.012          39.000    23278097.672   100741039.129        -747.430          36.000  
R 8  23454677.555   125992028.117       -3036.965          39.000    23454680.078   100803520.473       -2361.809          38.000  
R21  23281521.719   125617956.426        4540.789          41.000    23281526.617   100515714.797        3531.789          40.000  
R10  20047865.734   109011369.750        1784.266          44.000    20047873.328    83881592.742        1387.750          38.000  
S35                                                        41.000  
S33                                                        43.000  
S38                                                        42.000  
S31                                                        42.000  
> 2019  3 26 21 33 20.0000000  0 22                     
G30  20335910.477   109144212.926        -949.199          45.000    20335920.656    83968046.707        -739.656          32.000    20335921.742    84617032.684        -739.652          47.000  
G28  20831826.109   109057854.121         195.375          43.000    20831834.125    83885150.801         152.207          30.000                                                                  
G17  21581393.359   117290053.230        2263.703          45.000    21581402.078    92152723.938        1763.930          30.000    21581403.562    84336110.922        1763.863          45.000  
G11  21676993.992   117509236.527        -632.457          42.000    21677002.141    92336610.859        -492.891          26.000                                                                  
G19  23715246.461   125689886.406        3709.629          37.000    23715255.031   100601147.391        2890.629          22.000                                                                  
G13  22195284.359   117428202.074         431.055          43.000    22195292.680    92268837.078         335.996          25.000                                                                  
G 1  22330632.906   117360542.156        1314.320          40.000    22330645.609    92212748.406        1024.301          25.000    22330646.141    92765054.406        1023.945          44.000  
G18  22648766.648   117494418.164        -424.352          41.000    22648775.414    92354189.379        -330.613          23.000                                                                  
G 7  21956417.883   117586221.184       -2688.055          43.000    21956427.102    92412509.906       -2094.578          26.000    21956427.117    93207217.910       -2094.844          43.000  
G15  24354267.258   125747352.531        1356.215          43.000    24354276.742   100598798.473        1056.746          26.000    24354277.297   101152117.461        1056.758          42.000  
G 8  24631035.156   126117392.535       -3512.047          42.000    24631048.156   100910470.629       -2736.742          26.000    24631050.195   101360288.625       -2737.000          44.000  
R20  19822471.984   108913782.281        2077.945          38.000    19822478.289    83786559.824        1616.180          41.000  
R 9  20035239.961   109154752.453       -1081.293          43.000    20035243.812    83973751.594        -840.969          45.000  
R19  20820638.484   109224757.309       -2557.695          39.000    20820641.125    84038721.562       -1989.406          38.000  
R 1  23278269.914   125916711.727        -962.477          39.000    23278277.930   100741787.719        -748.555          36.000  
R 8  23455244.523   125995065.375       -3036.738          39.000    23455247.414   100805882.793       -2362.113          38.000  
R21  23280673.328   125613416.863        4539.918          41.000    23280678.344   100512184.035        3531.043          40.000  
R10  20047531.266   109009585.980        1784.328          45.000    20047538.492    83880205.359        1387.844          38.000  
S35                                                        41.000  
S33                                                        43.000  
S38                                                        42.000  
S31                                                        41.000  
> 2019  3 26 21 33 21.0000000  0 22                     
G30  20336091.055   109145162.395        -949.781          45.000    20336101.453    83968786.547        -740.102          32.000    20336102.188    84617772.535        -740.059          47.000  
G28  20831789.172   109057658.949         194.996          43.000    20831796.938    83884998.727         151.965          29.000                                                                  
G17  21580962.406   117287789.695        2263.320          45.000    21580971.398    92150960.145        1763.613          30.000    21580972.617    84334347.125        1763.785          45.000  
G11  21677114.352   117509869.602        -633.305          42.000    21677122.555    92337104.156        -493.523          25.000                                                                  
G19  23714540.695   125686176.918        3709.082          38.000    23714549.078   100598256.910        2890.086          23.000                                                                  
G13  22195201.922   117427771.539         429.957          43.000    22195210.875    92268501.598         335.031          25.000                                                                  
G 1  22330383.555   117359228.320        1313.477          40.000    22330395.555    92211724.641        1023.492          25.000    22330396.672    92764030.613        1023.406          44.000  
G18  22648847.617   117494842.855        -424.996          41.000    22648856.258    92354520.293        -331.270          22.000                                                                  
G 7  21956928.930   117588909.691       -2688.738          43.000    21956938.703    92414604.848       -2095.113          27.000    21956939.961    93209312.840       -2095.082          43.000  
G15  24354009.492   125745996.730        1355.746          43.000    24354018.789   100597742.020        1056.371          26.000    24354019.445   101151060.996        1056.117          42.000  
G 8  24631704.078   126120904.785       -3512.004          42.000    24631716.531   100913207.434       -2736.492          26.000    24631717.969   101363025.441       -2736.734          44.000  
R20  19822083.508   108911704.613        2077.105          37.000    19822089.844    83784943.871        1615.625          41.000  
R 9  20035442.430   109155834.070       -1081.773          43.000    20035446.367    83974592.852        -841.172          45.000  
R19  20821116.594   109227315.379       -2558.199          38.000    20821119.703    84040711.164       -1989.695          38.000  
R 1  23278449.953   125917674.184        -962.930          40.000    23278457.891   100742536.273        -748.902          36.000  
R 8  23455812.211   125998102.266       -3037.121          39.000    23455814.602   100808244.801       -2361.844          38.000  
R21  23279824.852   125608876.707        4540.160          41.000    23279829.922   100508652.812        3531.270          40.000  
R10  20047196.672   109007801.781        1784.246          44.000    20047203.906    83878817.652        1387.738          39.000  
S35                                                        41.000  
S33                                                        42.000  
S38                                                        41.000  
S31                                                        42.000  
> 2019  3 26 21 33 22.0000000  0 22                     
G30  20336271.492   109146112.219        -950.090          45.000    20336282.195    83969526.672        -740.324          32.000    20336282.922    84618512.645        -740.230          47.000  
G28  20831751.742   109057463.750         195.258          43.000    20831759.844    83884846.633         152.117          30.000                                                                  
G17  21580531.781   117285526.395        2263.316          45.000    21580540.703    92149196.543        1763.652          30.000    21580542.211    84332583.531        1763.469          45.000  
G11  21677234.711   117510503.164        -633.840          42.000    21677243.281    92337597.840        -493.895          25.000                                                                  
G19  23713835.148   125682467.391        3709.391          38.000    23713842.820   100595366.359        2890.449          23.000                                                                  
G13  22195120.344   117427341.461         429.879          44.000    22195129.156    92268166.480         334.965          25.000                                                                  
G 1  22330133.164   117357914.855        1312.773          40.000    22330145.578    92210701.168        1022.895          24.000    22330145.648    92763007.145        1023.488          44.000  
G18  22648928.797   117495268.066        -425.270          41.000    22648937.219    92354851.625        -331.332          22.000                                                                  
G 7  21957440.875   117591598.398       -2688.758          43.000    21957450.359    92416699.957       -2095.098          25.000    21957451.578    93211407.941       -2095.230          43.000  
G15  24353751.664   125744641.285        1355.355          43.000    24353760.867   100596685.816        1056.160          26.000    24353762.406   101150004.805        1055.969          42.000  
G 8  24632372.945   126124416.910       -3512.129          42.000    24632384.898   100915944.145       -2736.695          26.000    24632386.367   101365762.145       -2736.445          44.000  
R20  19821694.867   108909627.547        2077.871          38.000    19821701.312    83783328.398        1615.082          41.000  
R 9  20035645.016   109156915.918       -1081.637          43.000    20035648.930    83975434.301        -841.703          45.000  
R19  20821594.789   109229873.980       -2559.121          38.000    20821598.023    84042701.203       -1990.082          38.000  
R 1  23278630.180   125918637.188        -962.930          39.000    23278638.102   100743285.281        -748.965          37.000  
R 8  23456379.625   126001139.262       -3037.117          40.000    23456381.797   100810606.918       -2361.988          38.000  
R21  23278976.531   125604336.457        4540.234          41.000    23278981.562   100505121.512        3531.336          40.000  
R10  20046862.141   109006017.680        1784.371          45.000    20046869.328    83877430.012        1387.848          38.000  
S35                                                        41.000  
S33                                                        42.000  
S38                                                        41.000  
S31                                                        42.000  
> 2019  3 26 21 33 23.0000000  0 22                     
G30  20336452.070   109147061.938        -950.699          44.000    20336462.945    83970266.703        -740.809          31.000    20336463.617    84619252.684        -740.742          47.000  
G28  20831714.531   109057268.113         194.840          43.000    20831722.602    83884694.188         151.867          30.000                                                                  
G17  21580101.258   117283262.914        2262.574          45.000    21580109.992    92147432.781        1763.055          30.000    21580111.383    84330819.766        1763.184          45.000  
G11  21677355.297   117511136.742        -634.078          42.000    21677363.711    92338091.535        -494.121          25.000                                                                  
G19  23713129.188   125678757.457        3708.926          38.000    23713136.789   100592475.512        2890.145          23.000                                                                  
G13  22195038.906   117426911.426         429.340          44.000    22195047.320    92267831.383         334.480          25.000                                                                  
G 1  22329882.609   117356601.395        1312.629          40.000    22329895.516    92209677.684        1022.770          25.000    22329896.461    92761983.676        1022.801          44.000  
G18  22649009.758   117495693.336        -425.895          41.000    22649018.414    92355183.000        -331.855          21.000                                                                  
G 7  21957952.727   117594286.867       -2689.160          43.000    21957961.867    92418794.848       -2095.523          26.000    21957962.617    93213502.832       -2095.758          43.000  
G15  24353493.602   125743285.797        1354.512          43.000    24353502.898   100595629.598        1055.508          26.000    24353504.125   101148948.559        1055.633          42.000  
G 8  24633041.117   126127928.465       -3512.277          42.000    24633053.109   100918680.438       -2736.828          26.000    24633054.703   101368498.410       -2736.629          43.000  
R20  19821306.078   108907550.715        2076.539          38.000    19821313.008    83781713.059        1614.281          41.000  
R 9  20035847.461   109157997.551       -1082.449          43.000    20035851.398    83976275.574        -841.641          45.000  
R19  20822073.180   109232432.625       -2559.691          38.000    20822076.562    84044691.242       -1990.371          38.000  
R 1  23278810.352   125919600.297        -964.293          40.000    23278817.820   100744034.371        -750.016          36.000  
R 8  23456946.609   126004175.930       -3037.465          39.000    23456948.797   100812968.746       -2362.176          38.000  
R21  23278127.641   125599795.707        4539.820          41.000    23278132.969   100501589.801        3531.281          41.000  
R10  20046527.180   109004233.211        1784.059          44.000    20046534.195    83876042.102        1387.570          38.000  
S35                                                        41.000  
S33                                                        42.000  
S38                                                        41.000  
S31                                                        41.000  
> 2019  3 26 21 33 24.0000000  0 22                     
G30  20336633.297   109148012.613        -951.719          44.000    20336643.852    83971007.492        -741.621          31.000    20336644.984    84619993.469        -741.559          47.000  
G28  20831677.570   109057073.090         194.172          43.000    20831685.430    83884542.215         151.305          29.000                                                                  
G17  21579670.359   117281000.281        2261.777          45.000    21579679.391    92145669.699        1762.395          30.000    21579680.414    84329056.676        1762.504          45.000  
G11  21677476.070   117511771.434        -635.625          41.000    21677484.367    92338586.090        -495.234          25.000                                                                  
G19  23712423.312   125675048.152        3709.078          38.000    23712430.961   100589585.133        2890.039          23.000                                                                  
G13  22194957.078   117426482.492         427.992          44.000    22194965.859    92267497.152         333.508          25.000                                                                  
G 1  22329633.117   117355288.977        1311.422          40.000    22329645.797    92208655.043        1021.867          24.000    22329646.383    92760960.996        1022.379          44.000  
G18  22649091.039   117496119.719        -427.336          41.000    22649099.477    92355515.242        -333.027          21.000                                                                  
G 7  21958464.711   117596976.148       -2690.035          43.000    21958473.594    92420890.379       -2096.172          26.000    21958474.766    93215598.371       -2096.043          43.000  
G15  24353236.156   125741931.258        1353.754          43.000    24353244.891   100594574.102        1054.816          25.000    24353245.977   101147893.090        1054.812          42.000  
G 8  24633709.195   126131440.465       -3512.637          42.000    24633721.492   100921417.055       -2737.113          25.000    24633722.555   101371235.047       -2737.141          44.000  
R20  19820918.305   108905475.059        2074.820          38.000    19820924.906    83780098.672        1613.602          41.000  
R 9  20036050.477   109159080.051       -1083.238          43.000    20036054.328    83977117.512        -842.293          45.000  
R19  20822551.750   109234992.398       -2560.426          39.000    20822554.859    84046682.199       -1991.793          39.000  
R 1  23278990.828   125920564.574        -965.172          39.000    23278998.289   100744784.348        -750.668          36.000  
R 8  23457513.938   126007213.316       -3037.918          39.000    23457515.898   100815331.188       -2363.391          38.000  
R21  23277279.531   125595255.504        4539.824          40.000    23277284.375   100498058.543        3530.938          41.000  
R10  20046192.648   109002449.484        1782.773          44.000    20046199.875    83874654.754        1386.625          38.000  
S35                                                        41.000  
S33                                                        42.000  
S38                                                        41.000  
S31                                                        41.000  
> 2019  3 26 21 33 25.0000000  0 22                     
G30  20336814.352   109148964.109        -952.137          44.000    20336824.867    83971748.906        -741.934          31.000    20336826.492    84620734.902        -742.043          47.000  
G28  20831640.742   109056878.527         194.031          43.000    20831648.352    83884390.617         151.164          29.000                                                                  
G17  21579239.875   117278738.371        2261.500          45.000    21579249.039    92143907.176        1762.191          30.000    21579250.242    84327294.148        1762.324          45.000  
G11  21677597.320   117512407.082        -636.582          41.000    21677605.367    92339081.430        -496.020          26.000                                                                  
G19  23711716.250   125671339.324        3708.410          38.000    23711725.242   100586695.152        2889.633          24.000                                                                  
G13  22194875.766   117426054.512         427.355          44.000    22194884.477    92267163.660         332.992          25.000                                                                  
G 1  22329384.500   117353977.434        1311.328          40.000    22329396.086    92207633.059        1021.805          25.000    22329397.203    92759939.047        1021.336          44.000  
G18  22649171.562   117496547.117        -427.832          41.000    22649180.797    92355848.289        -333.492          22.000                                                                  
G 7  21958976.414   117599666.117       -2690.488          43.000    21958985.492    92422986.477       -2096.594          26.000    21958986.062    93217694.457       -2096.461          43.000  
G15  24352977.656   125740577.590        1353.359          43.000    24352987.047   100593519.320        1054.535          26.000    24352988.562   101146838.277        1054.160          42.000  
G 8  24634377.359   126134952.828       -3512.504          42.000    24634389.773   100924153.965       -2737.023          26.000    24634390.625   101373971.957       -2737.277          44.000  
R20  19820530.531   108903400.578        2073.586          38.000    19820536.891    83778485.188        1613.047          41.000  
R 9  20036253.055   109160163.289       -1083.848          44.000    20036257.117    83977960.020        -842.742          45.000  
R19  20823030.391   109237553.223       -2561.094          39.000    20823033.539    84048673.941       -1992.375          38.000  
R 1  23279171.000   125921529.898        -965.906          39.000    23279178.703   100745535.164        -751.340          35.000  
R 8  23458081.875   126010251.418       -3038.449          40.000    23458083.078   100817694.121       -2363.188          38.000  
R21  23276431.172   125590715.809        4539.242          41.000    23276436.086   100494527.672        3530.387          40.000  
R10  20045858.086   109000666.320        1782.781          44.000    20045865.602    83873267.852        1386.605          38.000  
S35                                                        41.000  
S33                                                        42.000  
S38                                                        41.000  
S31                                                        41.000  
> 2019  3 26 21 33 26.0000000  0 22                     
G30  20336995.008   109149915.375        -952.488          45.000    20337005.922    83972490.164        -742.184          31.000    20337007.148    84621476.141        -741.973          46.000  
G28  20831603.188   109056683.383         194.113          43.000    20831611.320    83884238.551         151.254          29.000                                                                  
G17  21578809.008   117276476.125        2261.160          45.000    21578818.594    92142144.375        1761.961          30.000    21578819.594    84325531.367        1761.922          44.000  
G11  21677718.141   117513042.629        -636.848          42.000    21677726.430    92339576.637        -496.145          25.000                                                                  
G19  23711011.047   125667629.926        3707.918          37.000    23711019.531   100583804.711        2889.176          24.000                                                                  
G13  22194794.352   117425626.449         426.645          43.000    22194803.117    92266830.105         332.465          25.000                                                                  
G 1  22329133.742   117352665.770        1310.637          40.000    22329146.680    92206610.984        1021.246          25.000    22329147.781    92758916.965        1021.000          43.000  
G18  22649252.969   117496974.438        -428.445          41.000    22649262.320    92356181.277        -333.766          23.000                                                                  
G 7  21959488.250   117602355.707       -2690.758          43.000    21959497.102    92425082.238       -2096.625          25.000    21959498.797    93219790.219       -2096.418          42.000  
G15  24352720.078   125739223.719        1352.719          43.000    24352729.453   100592464.344        1054.113          26.000    24352731.359   101145783.316        1053.730          41.000  
G 8  24635045.297   126138464.469       -3512.371          42.000    24635058.023   100926890.293       -2736.945          26.000    24635059.516   101376708.309       -2737.348          43.000  
R20  19820142.773   108901326.145        2072.762          37.000    19820148.875    83776871.730        1612.395          41.000  
R 9  20036456.180   109161246.145       -1083.617          43.000    20036459.906    83978802.258        -843.117          45.000  
R19  20823509.352   109240114.008       -2563.234          38.000    20823512.219    84050665.602       -1992.977          38.000  
R 1  23279352.242   125922495.168        -966.738          39.000    23279359.320   100746285.926        -751.875          36.000  
R 8  23458648.789   126013289.062       -3038.973          39.000    23458650.820   100820056.727       -2363.039          38.000  
R21  23275582.391   125586175.406        4539.461          41.000    23275587.836   100490996.266        3530.434          41.000  
R10  20045523.539   108998882.680        1782.523          44.000    20045530.883    83871880.566        1386.375          37.000  
S35                                                        41.000  
S33                                                        42.000  
S38                                                        41.000  
S31                                                        41.000  
> 2019  3 26 21 33 27.0000000  0 22                     
G30  20337176.852   109150869.395        -952.738          45.000    20337187.461    83973233.562        -742.379          31.000    20337188.734    84622219.543        -742.465          46.000  
G28  20831567.266   109056490.641         194.219          43.000    20831574.633    83884088.359         151.355          29.000                                                                  
G17  21578379.133   117274216.531        2260.816          45.000    21578388.617    92140383.676        1761.633          30.000    21578389.797    84323770.648        1761.605          45.000  
G11  21677839.562   117513681.066        -637.305          42.000    21677848.008    92340074.094        -496.531          25.000                                                                  
G19  23710305.641   125663922.906        3707.867          38.000    23710314.211   100580916.152        2889.113          23.000                                                                  
G13  22194713.648   117425201.246         426.340          44.000    22194722.219    92266498.781         332.250          25.000                                                                  
G 1  22328885.031   117351356.934        1310.047          40.000    22328897.656    92205591.109        1020.883          23.000    22328897.961    92757897.094        1020.461          44.000  
G18  22649335.547   117497404.691        -429.406          41.000    22649344.320    92356516.543        -334.641          22.000                                                                  
G 7  21960001.078   117605047.898       -2691.176          43.000    21960009.375    92427180.059       -2096.871          26.000    21960011.055    93221888.059       -2096.949          43.000  
G15  24352463.367   125737872.613        1352.504          43.000    24352472.266   100591411.527        1053.938          25.000    24352473.891   101144730.520        1053.297          42.000  
G 8  24635713.766   126141978.387       -3512.551          41.000    24635726.766   100929628.434       -2737.031          25.000    24635727.742   101379446.414       -2737.023          44.000  
R20  19819755.477   108899254.785        2072.820          38.000    19819761.734    83775260.688        1611.691          41.000  
R 9  20036659.633   109162331.730       -1084.539          44.000    20036663.227    83979646.605        -843.367          44.000  
R19  20823988.727   109242677.617       -2562.848          38.000    20823991.836    84052659.590       -1992.562          38.000  
R 1  23279533.047   125923463.426        -967.250          39.000    23279539.875   100747039.008        -752.250          36.000  
R 8  23459216.406   126016329.289       -3038.664          40.000    23459218.508   100822421.375       -2363.914          38.000  
R21  23274734.500   125581637.402        4539.660          41.000    23274739.562   100487466.703        3530.371          40.000  
R10  20045189.320   108997101.578        1782.434          44.000    20045196.797    83870495.273        1386.363          38.000  
S35                                                        41.000  
S33                                                        42.000  
S38                                                        42.000  
S31                                                        41.000  
> 2019  3 26 21 33 28.0000000  0 22                     
G30  20337358.227   109151822.914        -953.844          45.000    20337368.875    83973976.555        -743.227          32.000    20337370.148    84622962.535        -743.207          47.000  
G28  20831529.664   109056297.055         193.746          43.000    20831537.758    83883937.516         150.973          29.000                                                                  
G17  21577949.438   117271956.352        2259.969          45.000    21577958.523    92138622.480        1761.059          30.000    21577959.742    84322009.453        1761.027          45.000  
G11  21677961.008   117514319.137        -638.301          42.000    21677969.641    92340571.348        -497.359          25.000                                                                  
G19  23709599.719   125660215.047        3708.746          38.000    23709608.602   100578026.895        2889.930          23.000                                                                  
G13  22194632.531   117424775.703         425.344          44.000    22194641.164    92266167.188         331.398          25.000                                                                  
G 1  22328635.898   117350047.664        1309.148          40.000    22328648.695    92204570.891        1020.137          25.000    22328649.820    92756876.879        1019.902          44.000  
G18  22649417.547   117497834.566        -429.840          41.000    22649426.492    92356851.516        -334.949          23.000                                                                  
G 7  21960513.094   117607739.461       -2691.570          43.000    21960521.719    92429277.395       -2097.297          25.000    21960523.078    93223985.367       -2097.457          43.000  
G15  24352206.000   125736521.047        1351.543          43.000    24352215.023   100590358.375        1053.137          25.000    24352216.781   101143677.340        1052.996          42.000  
G 8  24636381.719   126145491.305       -3512.992          42.000    24636395.234   100932365.750       -2737.398          26.000    24636396.281   101382183.746       -2737.375          44.000  
R20  19819368.281   108897183.227        2071.875          38.000    19819374.453    83773649.461        1610.773          41.000  
R 9  20036862.977   109163416.684       -1085.008          44.000    20036866.273    83980490.445        -843.977          45.000  
R19  20824468.109   109245240.961       -2563.863          39.000    20824470.711    84054653.258       -1993.367          38.000  
R 1  23279713.992   125924431.359        -968.133          39.000    23279721.336   100747791.840        -752.961          36.000  
R 8  23459784.156   126019368.820       -3039.508          39.000    23459786.008   100824785.441       -2364.336          38.000  
R21  23273886.328   125577098.473        4538.836          40.000    23273891.484   100483936.418        3530.336          40.000  
R10  20044855.086   108995319.734        1781.512          44.000    20044862.281    83869109.395        1385.621          38.000  
S35                                                        42.000  
S33                                                        43.000  
S38                                                        42.000  
S31                                                        41.000  
> 2019  3 26 21 33 29.0000000  0 22                     
G30  20337539.953   109152776.648        -954.207          45.000    20337550.398    83974719.727        -743.500          31.000    20337551.453    84623705.711        -743.430          47.000  
G28  20831493.539   109056103.340         193.496          43.000    20831500.984    83883786.578         150.746          29.000                                                                  
G17  21577519.469   117269696.277        2259.574          45.000    21577528.492    92136861.391        1760.672          30.000    21577529.531    84320248.367        1760.633          45.000  
G11  21678083.008   117514957.566        -639.238          42.000    21678091.016    92341068.809        -498.113          25.000                                                                  
G19  23708893.422   125656507.156        3707.629          38.000    23708903.273   100575137.648        2888.918          23.000                                                                  
G13  22194551.352   117424350.512         424.496          44.000    22194560.203    92265835.867         330.766          25.000                                                                  
G 1  22328386.953   117348738.707        1308.164          40.000    22328399.734    92203550.926        1019.254          25.000    22328399.531    92755856.906        1019.422          44.000  
G18  22649499.023   117498264.863        -430.953          41.000    22649508.391    92357186.805        -335.785          22.000                                                                  
G 7  21961025.359   117610431.098       -2692.039          43.000    21961034.008    92431374.762       -2097.680          26.000    21961035.016    93226082.746       -2097.750          43.000  
G15  24351948.367   125735169.746        1350.805          43.000    24351957.930   100589305.414        1052.465          26.000    24351959.328   101142624.371        1052.531          42.000  
G 8  24637050.180   126149003.973       -3512.875          42.000    24637063.625   100935102.902       -2737.297          26.000    24637064.336   101384920.895       -2737.312          44.000  
R20  19818980.719   108895112.168        2069.641          38.000    19818987.062    83772038.621        1610.254          41.000  
R 9  20037066.367   109164501.762       -1085.844          44.000    20037069.562    83981334.383        -844.094          45.000  
R19  20824947.133   109247804.695       -2566.480          39.000    20824949.727    84056647.281       -1994.891          38.000  
R 1  23279895.211   125925399.691        -968.477          39.000    23279902.430   100748544.996        -753.316          36.000  
R 8  23460351.805   126022408.336       -3039.973          40.000    23460353.422   100827149.500       -2364.293          37.000  
R21  23273038.125   125572559.359        4538.723          40.000    23273043.266   100480406.004        3530.055          41.000  
R10  20044521.016   108993537.859        1781.324          44.000    20044528.305    83867723.496        1385.453          38.000  
S35                                                        41.000  
S33                                                        43.000  
S38                                                        41.000  
S31                                                        42.000  
> 2019  3 26 21 33 30.0000000  0 22                     
G30  20337721.266   109153731.980        -954.730          45.000    20337732.211    83975464.141        -743.988          32.000    20337733.219    84624450.129        -743.922          47.000  
G28  20831457.000   109055910.875         192.852          43.000    20831464.391    83883636.609         150.262          29.000                                                                  
G17  21577089.258   117267437.703        2258.996          45.000    21577098.781    92135101.469        1760.242          30.000    21577099.359    84318488.441        1760.395          45.000  
G11  21678204.422   117515597.723        -639.625          42.000    21678212.867    92341567.621        -498.414          26.000                                                                  
G19  23708188.234   125652800.465        3707.789          38.000    23708197.906   100572249.293        2889.230          24.000                                                                  
G13  22194470.750   117423927.027         424.070          44.000    22194479.430    92265505.859         330.418          25.000                                                                  
G 1  22328138.133   117347431.434        1307.664          40.000    22328150.719    92202532.285        1018.926          24.000    22328151.266    92754838.238        1019.188          44.000  
G18  22649581.305   117498696.918        -431.645          41.000    22649591.023    92357523.441        -336.246          22.000                                                                  
G 7  21961537.398   117613124.176       -2692.621          43.000    21961546.492    92433473.277       -2098.219          26.000    21961546.836    93228181.262       -2098.027          43.000  
G15  24351691.594   125733820.059        1350.242          42.000    24351700.922   100588253.699        1052.070          25.000    24351702.602   101141572.656        1052.344          43.000  
G 8  24637719.570   126152517.750       -3513.031          42.000    24637732.398   100937840.914       -2737.426          27.000    24637733.297   101387658.906       -2737.309          44.000  
R20  19818594.164   108893042.969        2068.203          38.000    19818600.094    83770429.258        1609.934          41.000  
R 9  20037269.828   109165588.305       -1085.777          44.000    20037272.977    83982179.508        -844.668          45.000  
R19  20825426.773   109250370.176       -2565.484          38.000    20825429.148    84058642.691       -1995.578          38.000  
R 1  23280076.641   125926369.902        -969.652          39.000    23280084.430   100749299.605        -754.172          36.000  
R 8  23460919.742   126025449.258       -3040.527          39.000    23460921.477   100829514.672       -2364.820          38.000  
R21  23272189.719   125568021.469        4538.512          40.000    23272195.219   100476876.570        3529.641          41.000  
R10  20044186.914   108991757.348        1780.969          44.000    20044194.789    83866338.648        1385.152          39.000  
S35                                                        42.000  
S33                                                        42.000  
S38                                                        42.000  
S31                                                        42.000  
> 2019  3 26 21 33 31.0000000  0 22                     
G30  20337903.258   109154686.480        -955.254          45.000    20337913.875    83976207.918        -744.395          32.000    20337915.102    84625193.895        -744.289          47.000  
G28  20831419.523   109055717.191         193.367          43.000    20831427.602    83883485.691         150.691          30.000                                                                  
G17  21576659.742   117265178.180        2258.891          45.000    21576668.875    92133340.793        1760.219          30.000    21576669.359    84316727.785        1760.047          45.000  
G11  21678326.398   117516237.168        -639.965          42.000    21678334.406    92342065.895        -498.602          26.000                                                                  
G19  23707483.539   125649092.621        3707.578          37.000    23707492.375   100569360.074        2889.027          23.000                                                                  
G13  22194389.867   117423502.863         423.508          44.000    22194398.641    92265175.344         330.027          25.000                                                                  
G 1  22327889.844   117346123.375        1307.523          40.000    22327901.852    92201513.000        1018.879          25.000    22327902.797    92753818.988        1018.723          44.000  
G18  22649663.258   117499128.301        -432.301          41.000    22649673.047    92357859.605        -336.789          22.000                                                                  
G 7  21962049.969   117615816.289       -2692.613          43.000    21962059.008    92435571.016       -2098.223          26.000    21962060.055    93230279.008       -2098.352          43.000  
G15  24351435.398   125732469.551        1349.953          43.000    24351443.812   100587201.336        1052.051          25.000    24351444.508   101140520.336        1051.793          43.000  
G 8  24638387.961   126156030.199       -3513.047          42.000    24638400.633   100940577.887       -2737.426          26.000    24638402.234   101390395.875       -2737.367          44.000  
R20  19818207.000   108890973.254        2068.602          38.000    19818212.867    83768819.453        1609.344          40.000  
R 9  20037472.898   109166673.961       -1086.320          44.000    20037476.211    83983023.879        -845.082          45.000  
R19  20825906.602   109252935.004       -2565.227          38.000    20825909.047    84060637.535       -1995.129          38.000  
R 1  23280258.188   125927339.465        -970.930          39.000    23280265.992   100750053.688        -755.191          36.000  
R 8  23461487.102   126028489.129       -3040.516          40.000    23461489.047   100831879.004       -2364.543          38.000  
R21  23271341.539   125563482.355        4538.973          40.000    23271347.156   100473346.113        3529.961          41.000  
R10  20043852.680   108989975.777        1780.902          44.000    20043860.289    83864952.984        1385.160          38.000  
S35                                                        42.000  
S33                                                        43.000  
S38                                                        42.000  
S31                                                        41.000  
> 2019  3 26 21 33 32.0000000  0 22                     
G30  20338085.164   109155642.270        -955.812          45.000    20338095.750    83976952.688        -744.770          31.000    20338097.008    84625938.656        -744.512          47.000  
G28  20831382.945   109055524.461         193.309          43.000    20831390.875    83883335.492         150.609          29.000                                                                  
G17  21576229.938   117262919.840        2258.742          45.000    21576239.180    92131581.039        1760.074          30.000    21576239.375    84314968.031        1760.039          45.000  
G11  21678447.961   117516878.039        -640.520          42.000    21678456.477    92342565.273        -499.105          26.000                                                                  
G19  23706777.438   125645385.707        3707.289          37.000    23706787.102   100566471.590        2888.809          24.000                                                                  
G13  22194309.914   117423080.121         422.988          43.000    22194318.125    92264845.945         329.652          25.000                                                                  
G 1  22327640.617   117344816.691        1306.844          40.000    22327653.141    92200494.828        1018.305          25.000    22327654.180    92752800.797        1018.504          44.000  
G18  22649744.969   117499561.156        -432.672          41.000    22649755.523    92358196.898        -337.148          23.000                                                                  
G 7  21962562.250   117618509.535       -2692.859          43.000    21962571.586    92437669.648       -2098.367          25.000    21962572.531    93232377.625       -2098.035          43.000  
G15  24351178.148   125731120.359        1349.367          42.000    24351187.180   100586150.043        1051.438          25.000    24351188.688   101139469.020        1051.625          43.000  
G 8  24639056.234   126159543.461       -3512.633          42.000    24639068.969   100943315.492       -2737.203          26.000    24639070.312   101393133.477       -2736.969          44.000  
R20  19817819.938   108888905.062        2068.000          38.000    19817825.984    83767210.875        1608.977          41.000  
R 9  20037676.477   109167760.766       -1086.281          44.000    20037679.625    83983869.180        -845.090          45.000  
R19  20826385.898   109255501.320       -2565.332          39.000    20826388.578    84062633.574       -1996.055          38.000  
R 1  23280439.602   125928310.469        -971.234          39.000    23280447.367   100750808.926        -755.461          36.000  
R 8  23462055.102   126031530.156       -3041.594          39.000    23462057.523   100834244.195       -2364.785          38.000  
R21  23270493.531   125558944.059        4538.988          40.000    23270498.836   100469816.340        3530.152          41.000  
R10  20043518.531   108988195.238        1781.027          44.000    20043526.297    83863568.117        1385.230          38.000  
S35                                                        42.000  
S33                                                        43.000  
S38                                                        42.000  
S31                                                        41.000  
> 2019  3 26 21 33 33.0000000  0 22                     
G30  20338267.383   109156598.898        -956.523          45.000    20338277.734    83977698.113        -745.359          31.000    20338278.867    84626684.102        -745.492          47.000  
G28  20831346.117   109055332.230         192.609          43.000    20831354.219    83883185.703         150.090          29.000                                                                  
G17  21575800.266   117260662.258        2257.773          45.000    21575809.531    92129821.887        1759.250          30.000    21575810.086    84313208.887        1759.336          45.000  
G11  21678569.922   117517519.887        -641.348          42.000    21678578.562    92343065.410        -499.859          26.000                                                                  
G19  23706071.992   125641679.316        3707.039          37.000    23706081.836   100563583.469        2888.562          24.000                                                                  
G13  22194229.758   117422658.367         421.758          43.000    22194237.805    92264517.297         328.648          25.000                                                                  
G 1  22327391.977   117343510.941        1305.930          40.000    22327404.688    92199477.320        1017.641          24.000    22327405.305    92751783.328        1017.664          44.000  
G18  22649827.859   117499995.023        -433.594          41.000    22649838.211    92358534.988        -337.875          21.000                                                                  
G 7  21963075.156   117621203.496       -2693.449          43.000    21963084.211    92439768.848       -2098.785          26.000    21963085.109    93234476.832       -2099.051          43.000  
G15  24350921.398   125729772.047        1348.668          43.000    24350930.711   100585099.414        1050.922          26.000    24350932.453   101138418.383        1050.836          43.000  
G 8  24639725.461   126163057.102       -3513.121          42.000    24639737.664   100946053.391       -2737.551          26.000    24639738.789   101395871.383       -2737.492          44.000  
R20  19817433.656   108886838.059        2067.145          38.000    19817439.359    83765603.188        1608.098          41.000  
R 9  20037879.836   109168848.352       -1087.305          44.000    20037883.344    83984715.059        -845.711          45.000  
R19  20826865.953   109258068.668       -2567.113          39.000    20826868.633    84064630.379       -1996.551          39.000  
R 1  23280621.266   125929282.539        -972.137          39.000    23280629.039   100751564.969        -756.098          37.000  
R 8  23462622.805   126034571.746       -3040.961          40.000    23462625.227   100836609.918       -2365.219          38.000  
R21  23269645.672   125554406.262        4538.398          40.000    23269650.977   100466286.941        3529.797          41.000  
R10  20043184.844   108986415.316        1780.219          45.000    20043191.883    83862183.727        1384.598          38.000  
S35                                                        41.000  
S33                                                        43.000  
S38                                                        42.000  
S31                                                        41.000  
> 2019  3 26 21 33 34.0000000  0 22                     
G30  20338448.906   109157554.477        -956.730          45.000    20338459.648    83978442.703        -745.508          32.000    20338460.773    84627428.695        -745.684          47.000  
G28  20831309.719   109055138.598         192.668          43.000    20831317.367    83883034.832         150.141          29.000                                                                  
G17  21575370.570   117258403.520        2257.629          45.000    21575379.672    92128061.848        1759.133          30.000    21575380.984    84311448.820        1759.043          45.000  
G11  21678692.117   117518160.836        -642.004          42.000    21678700.406    92343564.840        -500.320          26.000                                                                  
G19  23705367.883   125637971.512        3707.125          37.000    23705376.250   100560694.293        2888.719          25.000                                                                  
G13  22194149.406   117422235.676         421.586          44.000    22194157.508    92264187.926         328.609          25.000                                                                  
G 1  22327143.578   117342204.215        1305.512          40.000    22327156.172    92198459.098        1017.328          25.000    22327157.328    92750765.109        1017.090          44.000  
G18  22649910.859   117500428.016        -434.371          41.000    22649920.867    92358872.359        -338.547          21.000                                                                  
G 7  21963587.508   117623896.277       -2694.191          44.000    21963596.648    92441867.125       -2099.426          26.000    21963597.555    93236575.090       -2099.273          43.000  
G15  24350664.953   125728422.711        1348.312          43.000    24350673.992   100584047.961        1050.707          26.000    24350675.953   101137366.957        1050.477          43.000  
G 8  24640393.180   126166569.207       -3513.066          42.000    24640405.961   100948790.094       -2737.480          26.000    24640407.445   101398608.082       -2737.676          44.000  
R20  19817046.758   108884770.207        2066.180          38.000    19817052.734    83763994.906        1606.930          41.000  
R 9  20038083.352   109169934.734       -1087.906          44.000    20038086.820    83985560.035        -845.852          45.000  
R19  20827345.734   109260635.105       -2567.113          39.000    20827348.570    84066626.488       -1997.020          39.000  
R 1  23280802.969   125930253.719        -972.359          39.000    23280810.734   100752320.348        -756.293          37.000  
R 8  23463190.602   126037612.086       -3041.352          40.000    23463192.953   100838974.629       -2365.832          38.000  
R21  23268797.328   125549867.012        4537.719          40.000    23268802.555   100462756.414        3529.785          40.000  
R10  20042850.547   108984634.074        1780.008          44.000    20042857.688    83860798.320        1384.426          38.000  
S35                                                        41.000  
S33                                                        43.000  
S38                                                        42.000  
S31                                                        41.000  
> 2019  3 26 21 33 35.0000000  0 22                     
G30  20338631.016   109158510.852        -957.125          45.000    20338641.609    83979187.941        -745.879          32.000    20338642.867    84628173.926        -745.727          47.000  
G28  20831272.945   109054945.426         192.273          43.000    20831280.609    83882884.293         149.852          30.000                                                                  
G17  21574940.898   117256145.477        2257.227          45.000    21574950.023    92126302.320        1758.922          29.000    21574951.008    84309689.309        1759.039          45.000  
G11  21678814.672   117518802.715        -642.855          42.000    21678822.367    92344065.043        -500.914          25.000                                                                  
G19  23704661.891   125634264.188        3706.992          37.000    23704670.773   100557805.465        2888.637          23.000                                                                  
G13  22194068.680   117421813.930         420.871          44.000    22194077.484    92263859.312         327.844          25.000                                                                  
G 1  22326894.781   117340898.363        1305.059          40.000    22326907.492    92197441.566        1017.012          25.000    22326908.609    92749747.555        1017.039          44.000  
G18  22649993.422   117500861.969        -434.941          41.000    22650003.297    92359210.531        -339.059          21.000                                                                  
G 7  21964100.578   117626589.691       -2693.992          43.000    21964109.281    92443965.879       -2099.219          26.000    21964110.156    93238673.863       -2099.539          43.000  
G15  24350407.859   125727074.219        1347.641          43.000    24350417.531   100582997.207        1050.145          26.000    24350418.617   101136316.172        1050.438          43.000  
G 8  24641062.203   126170081.633       -3513.008          42.000    24641074.344   100951527.047       -2737.340          26.000    24641075.805   101401345.039       -2737.465          44.000  
R20  19816659.773   108882703.461        2066.438          37.000    19816666.250    83762387.453        1606.836          41.000  
R 9  20038286.812   109171021.836       -1087.617          44.000    20038290.383    83986405.562        -845.961          44.000  
R19  20827825.617   109263202.504       -2567.812          38.000    20827828.641    84068623.371       -1997.262          38.000  
R 1  23280984.898   125931225.938        -972.766          39.000    23280992.523   100753076.508        -756.598          37.000  
R 8  23463758.219   126040653.035       -3041.828          39.000    23463760.906   100841339.824       -2366.102          38.000  
R21  23267949.203   125545328.184        4538.223          40.000    23267954.477   100459226.223        3530.219          40.000  
R10  20042516.414   108982853.367        1780.094          44.000    20042523.648    83859413.336        1384.461          38.000  
S35                                                        42.000  
S33                                                        43.000  
S38                                                        42.000  
S31                                                        41.000  
> 2019  3 26 21 33 36.0000000  0 22                     
G30  20338813.062   109159467.977        -958.000          45.000    20338823.773    83979933.746        -746.445          31.000    20338824.727    84628919.723        -746.387          47.000  
G28  20831236.008   109054752.617         192.469          43.000    20831243.984    83882734.070         149.887          29.000                                                                  
G17  21574511.031   117253888.062        2256.766          45.000    21574520.516    92124543.301        1758.445          30.000    21574521.219    84307930.285        1758.641          45.000  
G11  21678936.805   117519445.453        -643.414          42.000    21678944.539    92344565.852        -501.254          26.000                                                                  
G19  23703955.734   125630557.262        3706.500          38.000    23703965.219   100554916.934        2888.156          24.000                                                                  
G13  22193988.758   117421393.055         420.070          43.000    22193997.484    92263531.363         327.297          26.000                                                                  
G 1  22326646.312   117339593.332        1304.582          40.000    22326659.367    92196424.656        1016.598          25.000    22326659.773    92748730.660        1016.336          44.000  
G18  22650075.680   117501296.824        -435.613          41.000    22650086.398    92359549.395        -339.492          21.000                                                                  
G 7  21964612.727   117629283.703       -2694.516          44.000    21964621.953    92446065.090       -2099.602          27.000    21964622.562    93240773.082       -2099.504          43.000  
G15  24350151.023   125725726.477        1346.949          43.000    24350161.008   100581947.039        1049.555          26.000    24350162.516   101135265.980        1049.652          43.000  
G 8  24641730.906   126173594.316       -3513.117          42.000    24641742.766   100954264.203       -2737.531          27.000    24641744.602   101404082.191       -2737.504          44.000  
R20  19816273.781   108880637.809        2064.938          38.000    19816279.883    83760780.812        1605.863          41.000  
R 9  20038490.406   109172109.574       -1088.414          43.000    20038493.984    83987251.574        -846.500          45.000  
R19  20828305.789   109265770.816       -2569.113          38.000    20828308.500    84070620.934       -1997.777          39.000  
R 1  23281167.180   125932199.074        -973.914          39.000    23281174.859   100753833.406        -757.500          37.000  
R 8  23464325.828   126043694.504       -3042.156          39.000    23464328.727   100843705.398       -2366.781          38.000  
R21  23267101.258   125540789.672        4537.980          40.000    23267106.359   100455696.293        3529.484          41.000  
R10  20042182.492   108981073.164        1779.785          44.000    20042190.055    83858028.738        1384.262          38.000  
S35                                                        41.000  
S33                                                        43.000  
S38                                                        42.000  
S31                                                        41.000  
> 2019  3 26 21 33 37.0000000  0 22                     
G30  20338995.141   109160426.172        -958.395          45.000    20339006.109    83980680.395        -746.801          32.000    20339007.000    84629666.383        -746.902          47.000  
G28  20831199.609   109054560.570         191.586          43.000    20831207.492    83882584.434         149.262          29.000                                                                  
G17  21574081.695   117251631.648        2256.168          45.000    21574091.000    92122785.070        1758.059          30.000    21574091.750    84306172.039        1758.191          45.000  
G11  21679059.086   117520089.426        -644.309          42.000    21679067.227    92345067.656        -502.035          25.000                                                                  
G19  23703251.422   125626851.074        3706.379          37.000    23703260.086   100552029.070        2888.160          24.000                                                                  
G13  22193908.883   117420973.395         419.250          43.000    22193917.461    92263204.352         326.664          26.000                                                                  
G 1  22326397.961   117338289.473        1303.906          40.000    22326411.070    92195408.648        1016.008          25.000    22326411.406    92747714.660        1015.953          44.000  
G18  22650158.141   117501732.926        -436.367          41.000    22650169.312    92359889.188        -339.906          22.000                                                                  
G 7  21965125.250   117631978.680       -2695.555          43.000    21965134.914    92448165.086       -2100.449          26.000    21965135.102    93242873.066       -2100.293          43.000  
G15  24349895.000   125724379.848        1346.777          42.000    24349904.789   100580897.691        1049.492          25.000    24349906.250   101134216.668        1049.188          43.000  
G 8  24642399.242   126177107.602       -3513.219          42.000    24642411.375   100957001.832       -2737.723          26.000    24642413.031   101406819.816       -2737.512          44.000  
R20  19815887.898   108878573.531        2064.090          38.000    19815893.742    83759175.262        1605.051          40.000  
R 9  20038694.266   109173198.277       -1088.953          43.000    20038697.945    83988098.336        -846.641          45.000  
R19  20828786.078   109268340.344       -2569.750          39.000    20828788.656    84072619.461       -1998.281          38.000  
R 1  23281349.383   125933173.527        -974.527          40.000    23281357.375   100754591.309        -757.961          37.000  
R 8  23464893.570   126046736.879       -3042.332          39.000    23464896.820   100846071.684       -2366.227          38.000  
R21  23266252.836   125536251.828        4537.570          39.000    23266258.164   100452166.824        3530.047          41.000  
R10  20041848.680   108979293.797        1779.754          45.000    20041856.344    83856644.781        1384.277          38.000  
S35                                                        41.000  
S33                                                        43.000  
S38                                                        42.000  
S31                                                        41.000  
> 2019  3 26 21 33 38.0000000  0 22                     
G30  20339177.508   109161385.301        -959.055          45.000    20339188.656    83981427.770        -747.375          32.000    20339189.766    84630413.750        -747.078          47.000  
G28  20831163.172   109054369.094         191.844          43.000    20831171.023    83882435.207         149.574          29.000                                                                  
G17  21573652.367   117249376.039        2256.043          45.000    21573661.789    92121027.453        1758.004          30.000    21573662.805    84304414.434        1757.879          45.000  
G11  21679181.734   117520734.461        -644.766          42.000    21679190.031    92345570.273        -502.430          26.000                                                                  
G19  23702546.719   125623145.512        3706.152          38.000    23702554.977   100549141.598        2887.793          24.000                                                                  
G13  22193828.727   117420554.797         418.777          44.000    22193837.734    92262878.164         326.270          26.000                                                                  
G 1  22326149.906   117336986.629        1303.164          40.000    22326163.172    92194393.484        1015.395          24.000    22326163.758    92746699.453        1015.328          44.000  
G18  22650242.141   117502170.109        -436.566          41.000    22650252.297    92360229.824        -340.176          22.000                                                                  
G 7  21965638.312   117634674.426       -2695.559          44.000    21965647.859    92450265.645       -2100.410          25.000    21965649.266    93244973.629       -2100.219          43.000  
G15  24349639.328   125723034.191        1345.781          42.000    24349648.734   100579849.141        1048.617          25.000    24349649.875   101133168.105        1048.750          43.000  
G 8  24643067.547   126180621.328       -3513.219          42.000    24643080.055   100959739.773       -2737.445          27.000    24643081.484   101409557.777       -2737.484          44.000  
R20  19815502.148   108876510.531        2063.703          38.000    19815508.266    83757570.664        1604.906          41.000  
R 9  20038898.273   109174287.840       -1089.375          43.000    20038901.922    83988945.773        -847.094          45.000  
R19  20829266.406   109270911.020       -2570.469          38.000    20829269.227    84074618.883       -1999.734          38.000  
R 1  23281532.016   125934149.102        -975.371          40.000    23281539.812   100755350.078        -758.602          37.000  
R 8  23465461.430   126049779.984       -3042.660          38.000    23465464.984   100848438.520       -2366.082          38.000  
R21  23265405.031   125531714.500        4537.484          40.000    23265410.391   100448637.816        3529.371          41.000  
R10  20041514.961   108977515.133        1779.188          44.000    20041522.586    83855261.371        1383.816          38.000  
S35                                                        41.000  
S33                                                        43.000  
S38                                                        42.000  
S31                                                        41.000  
> 2019  3 26 21 33 39.0000000  0 22                     
G30  20339360.031   109162343.961        -959.395          44.000    20339371.055    83982174.773        -747.582          32.000    20339371.750    84631160.766        -747.758          47.000  
G28  20831126.406   109054176.805         191.719          43.000    20831134.367    83882285.367         149.371          29.000                                                                  
G17  21573222.742   117247119.891        2255.520          45.000    21573232.391    92119269.410        1757.488          30.000    21573232.688    84302656.398        1757.293          45.000  
G11  21679304.617   117521379.172        -645.566          42.000    21679312.641    92346072.637        -503.059          25.000                                                                  
G19  23701840.945   125619439.133        3705.566          38.000    23701849.609   100546253.512        2887.516          24.000                                                                  
G13  22193749.516   117420135.879         418.055          43.000    22193758.148    92262551.738         325.672          25.000                                                                  
G 1  22325902.234   117335683.414        1302.609          40.000    22325915.250    92193377.984        1015.125          25.000    22325915.625    92745683.945        1014.887          44.000  
G18  22650325.281   117502607.008        -437.789          41.000    22650335.398    92360570.312        -341.086          21.000                                                                  
G 7  21966151.320   117637369.574       -2696.074          43.000    21966160.617    92452365.766       -2100.863          26.000    21966162.148    93247073.750       -2100.664          43.000  
G15  24349383.234   125721688.082        1345.512          42.000    24349392.562   100578800.215        1048.445          25.000    24349394.234   101132119.195        1048.406          42.000  
G 8  24643735.695   126184134.098       -3513.344          42.000    24643748.570   100962477.023       -2737.742          26.000    24643750.266   101412295.016       -2737.848          44.000  
R20  19815116.180   108874447.305        2062.719          38.000    19815122.508    83755965.965        1603.867          41.000  
R 9  20039102.422   109175376.824       -1089.613          44.000    20039105.859    83989792.766        -847.480          44.000  
R19  20829747.133   109273481.398       -2571.848          38.000    20829750.016    84076618.035       -2000.078          38.000  
R 1  23281714.336   125935124.410        -976.102          39.000    23281722.133   100756108.652        -759.176          36.000  
R 8  23466029.656   126052822.418       -3043.055          39.000    23466033.211   100850804.863       -2366.719          39.000  
R21  23264556.828   125527176.332        4537.621          40.000    23264562.203   100445108.121        3529.574          41.000  
R10  20041181.172   108975735.758        1778.281          44.000    20041188.336    83853877.414        1383.094          37.000  
S35                                                        41.000  
S33                                                        42.000  
S38                                                        41.000  
S31                                                        41.000  
> 2019  3 26 21 33 40.0000000  0 22                     
G30  20339543.406   109163304.652        -959.680          45.000    20339553.891    83982923.371        -747.785          31.000    20339554.766    84631909.336        -747.602          47.000  
G28  20831090.148   109053986.188         191.535          43.000    20831098.094    83882136.848         149.246          30.000                                                                  
G17  21572793.633   117244865.652        2255.352          45.000    21572803.320    92117512.859        1757.418          30.000    21572804.500    84300899.844        1757.434          45.000  
G11  21679427.672   117522026.039        -645.898          42.000    21679435.805    92346576.703        -503.188          25.000                                                                  
G19  23701135.555   125615734.438        3705.734          39.000    23701144.719   100543366.730        2887.645          23.000                                                                  
G13  22193669.953   117419719.121         417.438          44.000    22193678.750    92262226.961         325.145          25.000                                                                  
G 1  22325655.016   117334382.254        1302.152          40.000    22325667.750    92192364.086        1014.727          25.000    22325667.891    92744670.074        1014.680          44.000  
G18  22650408.789   117503046.086        -438.176          41.000    22650419.070    92360912.422        -341.402          22.000                                                                  
G 7  21966664.648   117640066.574       -2695.938          44.000    21966674.016    92454467.336       -2100.727          26.000    21966674.320    93249175.320       -2100.660          43.000  
G15  24349127.508   125720344.043        1344.688          43.000    24349136.820   100577752.898        1047.816          26.000    24349138.086   101131071.875        1048.059          42.000  
G 8  24644404.898   126187648.418       -3512.984          42.000    24644417.320   100965215.441       -2737.398          26.000    24644418.336   101415033.438       -2737.438          44.000  
R20  19814730.969   108872386.301        2064.008          38.000    19814737.172    83754363.047        1603.609          41.000  
R 9  20039306.656   109176467.750       -1089.887          44.000    20039310.250    83990641.266        -847.742          45.000  
R19  20830228.047   109276053.945       -2572.180          38.000    20830230.914    84078618.930       -2000.230          39.000  
R 1  23281897.547   125936101.941        -976.242          40.000    23281904.953   100756868.953        -759.293          36.000  
R 8  23466597.977   126055866.664       -3043.348          39.000    23466601.914   100853172.551       -2365.684          38.000  
R21  23263709.336   125522639.812        4537.840          40.000    23263714.336   100441579.750        3529.023          40.000  
R10  20040847.602   108973958.141        1778.613          45.000    20040854.938    83852494.820        1383.340          38.000  
S35                                                        41.000  
S33                                                        43.000  
S38                                                        42.000  
S31                                                        42.000  
> 2019  3 26 21 33 41.0000000  0 22                     
G30  20339726.125   109164263.648        -960.363          44.000    20339736.391    83983670.637        -748.328          31.000    20339737.320    84632656.629        -748.520          47.000  
G28  20831053.219   109053793.539         191.215          43.000    20831061.344    83881986.723         149.016          29.000                                                                  
G17  21572364.828   117242609.645        2254.547          45.000    21572374.000    92115754.938        1756.742          29.000    21572374.938    84299141.914        1756.871          45.000  
G11  21679550.992   117522671.340        -646.863          42.000    21679558.609    92347079.539        -504.086          25.000                                                                  
G19  23700430.180   125612027.723        3705.137          38.000    23700439.469   100540478.359        2887.066          23.000                                                                  
G13  22193590.672   117419300.801         416.777          43.000    22193599.195    92261901.035         324.809          25.000                                                                  
G 1  22325406.992   117333079.527        1301.035          39.000    22325419.961    92191348.973        1013.859          24.000    22325419.875    92743654.961        1013.785          44.000  
G18  22650492.500   117503483.660        -439.312          41.000    22650502.188    92361253.410        -342.379          22.000                                                                  
G 7  21967177.594   117642761.762       -2696.371          43.000    21967186.945    92456567.477       -2101.031          26.000    21967186.852    93251275.465       -2101.051          43.000  
G15  24348870.820   125718998.332        1344.234          42.000    24348880.773   100576704.312        1047.430          25.000    24348882.781   101130023.273        1047.574          43.000  
G 8  24645073.492   126191160.547       -3513.059          42.000    24645085.789   100967952.168       -2737.461          26.000    24645086.938   101417770.164       -2737.578          44.000  
R20  19814345.352   108870324.094        2060.660          38.000    19814351.281    83752759.020        1602.855          41.000  
R 9  20039510.836   109177556.879       -1090.754          44.000    20039514.195    83991488.371        -848.238          44.000  
R19  20830708.719   109278624.977       -2572.133          38.000    20830711.258    84080618.633       -2000.816          39.000  
R 1  23282080.227   125937078.008        -978.047          39.000    23282087.688   100757628.109        -760.707          37.000  
R 8  23467165.734   126058909.020       -3044.043          38.000    23467169.883   100855538.895       -2367.227          38.000  
R21  23262861.523   125518101.164        4537.656          40.000    23262866.094   100438049.695        3529.051          41.000  
R10  20040513.859   108972178.586        1778.246          45.000    20040521.094    83851110.727        1383.082          37.000  
S35                                                        41.000  
S33                                                        42.000  
S38                                                        42.000  
S31                                                        41.000  
> 2019  3 26 21 33 42.0000000  0 22                     
G30  20339908.438   109165224.793        -960.848          45.000    20339919.297    83984419.578        -748.664          32.000    20339920.602    84633405.566        -748.867          47.000  
G28  20831017.266   109053602.684         190.945          43.000    20831025.008    83881838.004         148.801          29.000                                                                  
G17  21571935.594   117240355.652        2254.293          45.000    21571945.156    92113998.586        1756.613          30.000    21571945.797    84297385.566        1756.512          45.000  
G11  21679673.898   117523318.941        -647.676          42.000    21679682.016    92347584.168        -504.633          25.000                                                                  
G19  23699725.336   125608322.812        3705.141          39.000    23699734.219   100537591.457        2887.102          23.000                                                                  
G13  22193510.781   117418884.781         415.957          43.000    22193520.203    92261576.859         324.074          25.000                                                                  
G 1  22325159.984   117331779.000        1300.824          40.000    22325172.570    92190335.574        1013.613          25.000    22325172.539    92742641.562        1013.430          44.000  
G18  22650575.547   117503923.516        -439.770          41.000    22650586.062    92361596.141        -342.656          22.000                                                                  
G 7  21967690.898   117645458.961       -2696.949          44.000    21967700.375    92458669.180       -2101.543          26.000    21967700.898    93253377.180       -2101.586          44.000  
G15  24348615.609   125717654.785        1343.746          42.000    24348625.289   100575657.391        1047.043          25.000    24348627.078   101128976.359        1047.086          43.000  
G 8  24645741.719   126194674.371       -3513.332          42.000    24645754.609   100970690.219       -2737.590          26.000    24645755.781   101420508.211       -2737.801          44.000  
R20  19813960.383   108868264.219        2060.285          38.000    19813966.000    83751156.914        1601.875          41.000  
R 9  20039715.164   109178648.027       -1090.910          44.000    20039718.594    83992337.031        -848.293          45.000  
R19  20831189.836   109281198.359       -2573.020          38.000    20831192.398    84082620.152       -2001.949          39.000  
R 1  23282263.547   125938056.398        -978.141          40.000    23282270.766   100758389.090        -760.715          37.000  
R 8  23467734.102   126061953.387       -3043.688          39.000    23467738.188   100857906.727       -2368.727          38.000  
R21  23262013.891   125513564.289        4536.742          40.000    23262018.430   100434520.992        3528.715          40.000  
R10  20040180.484   108970400.965        1777.992          45.000    20040187.648    83849728.129        1382.887          38.000  
S35                                                        41.000  
S33                                                        42.000  
S38                                                        41.000  
S31                                                        41.000  
> 2019  3 26 21 33 43.0000000  0 22                     
G30  20340090.977   109166185.723        -961.461          45.000    20340102.086    83985168.348        -749.203          31.000    20340103.070    84634154.359        -749.543          47.000  
G28  20830981.148   109053411.270         190.734          43.000    20830988.594    83881688.848         148.648          29.000                                                                  
G17  21571506.758   117238101.371        2253.668          45.000    21571516.117    92112242.008        1756.145          30.000    21571516.773    84295628.992        1756.121          45.000  
G11  21679797.086   117523966.453        -648.500          42.000    21679805.297    92348088.711        -505.246          26.000                                                                  
G19  23699021.195   125604617.352        3704.578          39.000    23699029.102   100534704.047        2886.812          24.000                                                                  
G13  22193431.383   117418468.672         415.156          43.000    22193441.000    92261252.617         323.422          26.000                                                                  
G 1  22324911.883   117330478.375        1299.492          40.000    22324924.898    92189322.109        1012.500          24.000    22324925.602    92741628.090        1012.844          44.000  
G18  22650659.477   117504363.336        -440.406          41.000    22650669.609    92361938.863        -343.207          21.000                                                                  
G 7  21968203.914   117648155.801       -2697.406          44.000    21968213.773    92460770.613       -2101.844          26.000    21968214.133    93255478.621       -2101.965          43.000  
G15  24348359.984   125716311.074        1343.004          43.000    24348369.602   100574610.363        1046.465          26.000    24348371.039   101127929.324        1046.332          43.000  
G 8  24646410.336   126198187.492       -3513.598          42.000    24646423.266   100973427.711       -2737.789          27.000    24646424.680   101423245.719       -2738.082          44.000  
R20  19813574.961   108866204.414        2059.105          38.000    19813580.805    83749554.855        1601.270          41.000  
R 9  20039919.828   109179738.875       -1091.520          44.000    20039922.836    83993185.488        -849.074          45.000  
R19  20831670.227   109283771.707       -2574.453          38.000    20831673.531    84084621.629       -2002.242          38.000  
R 1  23282446.328   125939034.812        -979.246          40.000    23282453.977   100759150.074        -761.598          36.000  
R 8  23468302.680   126064997.277       -3043.871          38.000    23468306.516   100860274.219       -2368.465          38.000  
R21  23261165.844   125509026.781        4537.402          40.000    23261170.523   100430991.840        3528.715          41.000  
R10  20039846.812   108968622.902        1777.387          44.000    20039854.172    83848345.195        1382.410          38.000  
S35                                                        41.000  
S33                                                        43.000  
S38                                                        41.000  
S31                                                        41.000  
> 2019  3 26 21 33 44.0000000  0 22                     
G30  20340273.531   109167148.242        -962.320          44.000    20340285.195    83985918.363        -749.859          32.000    20340286.828    84634904.355        -749.863          47.000  
G28  20830944.922   109053221.066         190.465          43.000    20830952.516    83881540.645         148.414          29.000                                                                  
G17  21571078.648   117235848.551        2253.184          45.000    21571087.422    92110486.555        1755.746          29.000    21571087.930    84293873.543        1755.578          45.000  
G11  21679920.812   117524615.668        -648.898          42.000    21679928.727    92348594.590        -505.586          25.000                                                                  
G19  23698315.648   125600913.109        3704.645          39.000    23698324.430   100531817.652        2886.652          24.000                                                                  
G13  22193352.758   117418054.262         414.273          43.000    22193362.086    92260929.703         322.930          26.000                                                                  
G 1  22324665.141   117329179.355        1299.094          40.000    22324677.648    92188309.883        1012.344          24.000    22324678.188    92740615.875        1012.203          44.000  
G18  22650743.445   117504804.887        -441.484          41.000    22650753.836    92362282.945        -343.965          22.000                                                                  
G 7  21968717.523   117650854.059       -2697.938          43.000    21968727.359    92462873.176       -2102.191          26.000    21968727.430    93257581.152       -2102.391          44.000  
G15  24348104.406   125714968.941        1342.570          43.000    24348114.094   100573564.539        1046.152          26.000    24348115.391   101126883.512        1045.738          43.000  
G 8  24647079.422   126201701.703       -3513.875          42.000    24647092.148   100976166.055       -2738.012          26.000    24647093.367   101425984.055       -2738.215          44.000  
R20  19813190.094   108864146.543        2057.062          38.000    19813196.195    83747954.254        1600.762          41.000  
R 9  20040124.180   109180831.211       -1092.273          44.000    20040127.461    83994035.066        -849.496          45.000  
R19  20832151.398   109286346.766       -2574.738          38.000    20832154.922    84086624.461       -2002.895          38.000  
R 1  23282630.047   125940014.988        -979.938          40.000    23282637.336   100759912.438        -762.199          37.000  
R 8  23468871.336   126068042.547       -3044.602          38.000    23468875.289   100862642.789       -2369.004          38.000  
R21  23260318.297   125504490.512        4536.445          40.000    23260322.852   100427463.645        3528.125          41.000  
R10  20039513.500   108966846.156        1777.098          45.000    20039520.898    83846963.289        1382.121          38.000  
S35                                                        41.000  
S33                                                        43.000  
S38                                                        42.000  
S31                                                        41.000  
> 2019  3 26 21 33 45.0000000  0 22                     
G30  20340456.891   109168109.977        -962.754          45.000    20340468.227    83986667.777        -750.211          32.000    20340469.070    84635653.758        -750.168          47.000  
G28  20830908.375   109053029.758         190.344          43.000    20830916.211    83881391.586         148.336          29.000                                                                  
G17  21570649.078   117233594.863        2252.777          45.000    21570658.547    92108730.434        1755.484          30.000    21570659.531    84292117.426        1755.285          45.000  
G11  21680044.047   117525264.246        -649.215          42.000    21680052.250    92349099.969        -505.918          26.000                                                                  
G19  23697610.656   125597207.797        3704.164          39.000    23697619.148   100528930.391        2886.273          25.000                                                                  
G13  22193274.328   117417639.219         413.848          43.000    22193282.914    92260606.289         322.453          25.000                                                                  
G 1  22324417.352   117327879.672        1298.887          41.000    22324430.250    92187297.137        1012.148          25.000    22324430.875    92739603.141        1012.078          44.000  
G18  22650826.938   117505245.852        -442.230          41.000    22650837.711    92362626.531        -344.555          22.000                                                                  
G 7  21969230.391   117653551.418       -2698.254          44.000    21969240.570    92464974.992       -2102.504          26.000    21969240.406    93259682.984       -2102.707          44.000  
G15  24347849.273   125713626.090        1341.949          43.000    24347858.406   100572518.148        1045.754          26.000    24347860.000   101125837.113        1045.941          43.000  
G 8  24647747.172   126205214.664       -3513.680          42.000    24647760.719   100978903.406       -2737.895          26.000    24647762.008   101428721.414       -2738.113          44.000  
R20  19812805.133   108862088.094        2057.797          37.000    19812811.234    83746353.281        1599.891          41.000  
R 9  20040328.531   109181922.656       -1092.773          44.000    20040331.852    83994883.980        -849.664          45.000  
R19  20832632.453   109288921.227       -2577.664          38.000    20832636.078    84088626.793       -2003.246          39.000  
R 1  23282813.211   125940994.594        -980.570          40.000    23282820.219   100760674.352        -762.680          37.000  
R 8  23469439.797   126071086.801       -3045.391          39.000    23469443.867   100865010.488       -2368.375          38.000  
R21  23259470.289   125499953.043        4536.582          41.000    23259474.586   100423934.477        3528.699          41.000  
R10  20039180.023   108965068.414        1776.566          44.000    20039187.555    83845580.602        1381.758          38.000  
S35                                                        41.000  
S33                                                        43.000  
S38                                                        42.000  
S31                                                        42.000  
> 2019  3 26 21 33 46.0000000  0 22                     
G30  20340640.578   109169072.387        -963.203          44.000    20340651.422    83987417.711        -750.609          31.000    20340652.688    84636403.695        -750.605          47.000  
G28  20830871.727   109052838.750         190.598          43.000    20830879.836    83881242.727         148.516          30.000                                                                  
G17  21570220.375   117231341.738        2252.516          45.000    21570229.625    92106974.754        1755.188          30.000    21570230.555    84290361.750        1755.035          45.000  
G11  21680167.516   117525913.641        -650.008          42.000    21680176.039    92349606.008        -506.496          26.000                                                                  
G19  23696905.891   125593502.812        3703.695          39.000    23696914.289   100526043.406        2885.953          24.000                                                                  
G13  22193195.531   117417224.984         413.695          43.000    22193204.109    92260283.516         322.387          25.000                                                                  
G 1  22324169.891   117326580.746        1298.246          40.000    22324182.945    92186285.016        1011.512          25.000    22324182.984    92738590.984        1011.777          44.000  
G18  22650910.781   117505687.645        -442.512          41.000    22650921.773    92362970.793        -344.977          22.000                                                                  
G 7  21969743.750   117656249.293       -2698.520          44.000    21969754.180    92467077.246       -2102.762          26.000    21969754.180    93261785.227       -2102.812          43.000  
G15  24347593.742   125712283.934        1341.266          43.000    24347603.016   100571472.305        1045.129          26.000    24347604.719   101124791.289        1045.461          43.000  
G 8  24648416.500   126208727.785       -3513.781          42.000    24648429.273   100981640.930       -2738.094          26.000    24648430.797   101431458.918       -2737.762          44.000  
R20  19812420.352   108860030.672        2056.246          38.000    19812426.367    83744753.047        1599.734          41.000  
R 9  20040533.039   109183014.703       -1092.711          44.000    20040536.172    83995733.332        -849.859          45.000  
R19  20833114.016   109291496.508       -2577.055          38.000    20833117.555    84090629.785       -2003.301          39.000  
R 1  23282996.539   125941975.070        -980.789          40.000    23283003.727   100761436.949        -762.855          37.000  
R 8  23470008.258   126074131.523       -3045.000          38.000    23470012.781   100867378.598       -2368.355          38.000  
R21  23258622.102   125495415.852        4536.285          41.000    23258626.797   100420405.551        3528.586          41.000  
R10  20038846.711   108963291.086        1776.730          44.000    20038854.328    83844198.230        1381.902          38.000  
S35                                                        42.000  
S33                                                        43.000  
S38                                                        42.000  
S31                                                        41.000  
> 2019  3 26 21 33 47.0000000  0 22                     
G30  20340823.969   109170036.242        -963.367          44.000    20340834.891    83988168.758        -750.672          31.000    20340836.211    84637154.742        -750.730          47.000  
G28  20830836.164   109052648.875         190.246          43.000    20830843.641    83881094.773         148.250          29.000                                                                  
G17  21569791.758   117229089.984        2252.340          45.000    21569801.133    92105220.145        1755.062          30.000    21569802.469    84288607.125        1754.969          45.000  
G11  21680292.023   117526564.621        -650.551          42.000    21680299.914    92350113.262        -506.906          26.000                                                                  
G19  23696200.719   125589798.922        3704.992          39.000    23696209.406   100523157.246        2887.168          24.000                                                                  
G13  22193116.719   117416812.344         413.195          43.000    22193125.750    92259961.980         322.047          25.000                                                                  
G 1  22323923.531   117325283.379        1297.516          41.000    22323936.227    92185274.070        1011.070          25.000    22323936.633    92737580.035        1011.289          44.000  
G18  22650995.344   117506131.074        -442.957          41.000    22651005.969    92363316.332        -345.090          21.000                                                                  
G 7  21970257.703   117658948.484       -2698.836          43.000    21970267.727    92469180.500       -2102.973          26.000    21970267.891    93263888.488       -2102.883          43.000  
G15  24347338.875   125710943.262        1340.789          43.000    24347347.945   100570427.629        1044.844          26.000    24347348.555   101123746.598        1045.090          43.000  
G 8  24649084.289   126212241.910       -3513.727          42.000    24649098.000   100984379.203       -2737.961          25.000    24649098.797   101434197.195       -2737.863          44.000  
R20  19812035.766   108857975.004        2057.055          38.000    19812042.047    83743154.195        1599.051          41.000  
R 9  20040737.758   109184108.094       -1093.070          44.000    20040741.125    83996583.754        -850.066          45.000  
R19  20833596.023   109294073.391       -2575.887          38.000    20833599.430    84092634.066       -2004.090          39.000  
R 1  23283180.492   125942957.230        -981.938          40.000    23283187.250   100762200.848        -763.723          37.000  
R 8  23470576.891   126077177.539       -3045.520          39.000    23470581.500   100869747.707       -2368.125          38.000  
R21  23257774.828   125490879.684        4536.328          41.000    23257779.352   100416877.434        3528.578          41.000  
R10  20038513.320   108961515.000        1776.570          44.000    20038521.070    83842816.832        1381.824          38.000  
S35                                                        42.000  
S33                                                        43.000  
S38                                                        42.000  
S31                                                        41.000  
> 2019  3 26 21 33 48.0000000  0 22                     
G30  20341007.234   109170999.754        -964.594          44.000    20341018.289    83988919.551        -751.656          31.000    20341019.117    84637905.523        -751.406          47.000  
G28  20830799.461   109052458.273         189.648          43.000    20830807.406    83880946.258         147.715          29.000                                                                  
G17  21569363.023   117226837.758        2251.328          45.000    21569372.586    92103465.168        1754.324          30.000    21569373.906    84286852.152        1754.238          45.000  
G11  21680415.766   117527215.375        -651.758          42.000    21680423.758    92350620.355        -507.887          26.000                                                                  
G19  23695497.156   125586094.340        3704.086          39.000    23695504.406   100520270.551        2886.203          24.000                                                                  
G13  22193038.148   117416399.484         411.770          43.000    22193047.164    92259640.254         320.832          25.000                                                                  
G 1  22323676.406   117323985.688        1297.020          40.000    22323689.180    92184262.879        1010.641          25.000    22323689.805    92736568.863        1010.297          44.000  
G18  22651080.188   117506574.301        -444.180          41.000    22651090.203    92363661.672        -346.188          21.000                                                                  
G 7  21970771.719   117661647.164       -2699.578          43.000    21970781.336    92471283.383       -2103.656          26.000    21970781.570    93265991.355       -2103.539          44.000  
G15  24347083.773   125709602.238        1340.387          43.000    24347092.820   100569382.684        1044.473          26.000    24347094.516   101122701.660        1044.355          43.000  
G 8  24649752.797   126215755.184       -3513.953          42.000    24649766.641   100987116.809       -2738.152          26.000    24649767.180   101436934.805       -2737.953          44.000  
R20  19811651.570   108855919.262        2054.770          38.000    19811657.617    83741555.293        1597.746          41.000  
R 9  20040942.508   109185201.000       -1093.867          43.000    20040945.859    83997433.797        -850.848          45.000  
R19  20834077.508   109296650.117       -2577.855          38.000    20834080.586    84094638.188       -2004.957          38.000  
R 1  23283364.086   125943939.195        -982.816          40.000    23283371.117   100762964.590        -764.387          37.000  
R 8  23471146.180   126080222.980       -3046.676          38.000    23471150.070   100872116.348       -2368.379          39.000  
R21  23256927.250   125486342.766        4536.074          41.000    23256931.547   100413348.719        3528.367          41.000  
R10  20038179.961   108959738.293        1775.938          45.000    20038187.656    83841434.941        1381.281          38.000  
S35                                                        41.000  
S33                                                        42.000  
S38                                                        42.000  
S31                                                        41.000  
> 2019  3 26 21 33 49.0000000  0 22                     
G30  20341190.820   109171963.695        -964.875          45.000    20341201.789    83989670.660        -751.770          31.000    20341202.352    84638656.656        -752.047          47.000  
G28  20830763.516   109052267.750         190.004          43.000    20830771.172    83880797.797         148.066          30.000                                                                  
G17  21568934.820   117224585.887        2251.078          45.000    21568944.078    92101710.473        1754.059          30.000    21568944.953    84285097.434        1754.289          44.000  
G11  21680539.609   117527866.703        -652.043          42.000    21680547.539    92351127.863        -508.098          25.000                                                                  
G19  23694791.258   125582389.879        3703.492          39.000    23694799.508   100517383.973        2885.824          24.000                                                                  
G13  22192959.922   117415987.195         411.379          43.000    22192968.852    92259318.992         320.621          25.000                                                                  
G 1  22323430.156   117322688.531        1296.746          40.000    22323442.469    92183252.113        1010.508          25.000    22323442.812    92735558.105        1009.938          44.000  
G18  22651164.070   117507018.141        -445.039          41.000    22651174.398    92364007.547        -346.754          20.000                                                                  
G 7  21971285.086   117664346.160       -2699.777          43.000    21971294.969    92473386.473       -2103.762          26.000    21971295.516    93268094.449       -2103.434          43.000  
G15  24346828.688   125708261.707        1339.820          43.000    24346837.930   100568338.102        1044.059          26.000    24346838.930   101121657.074        1044.066          42.000  
G 8  24650422.500   126219268.414       -3513.973          42.000    24650435.164   100989854.395       -2738.254          26.000    24650435.578   101439672.383       -2738.098          44.000  
R20  19811267.211   108853864.258        2053.980          38.000    19811273.125    83739956.930        1597.793          41.000  
R 9  20041147.328   109186294.258       -1093.926          44.000    20041150.625    83998284.109        -851.012          45.000  
R19  20834559.344   109299227.477       -2577.945          38.000    20834562.617    84096642.805       -2005.672          39.000  
R 1  23283547.992   125944921.824        -983.680          40.000    23283555.055   100763728.855        -765.094          36.000  
R 8  23471715.125   126083268.664       -3045.582          39.000    23471718.742   100874485.266       -2369.039          38.000  
R21  23256079.414   125481805.945        4535.812          41.000    23256083.984   100409820.074        3528.656          41.000  
R10  20037846.836   108957961.805        1775.723          44.000    20037854.383    83840053.234        1381.133          38.000  
S35                                                        41.000  
S33                                                        42.000  
S38                                                        42.000  
S31                                                        41.000  
> 2019  3 26 21 33 50.0000000  0 22                     
G30  20341374.438   109172929.164        -965.238          44.000    20341385.461    83990422.984        -752.105          31.000    20341386.617    84639408.957        -752.043          47.000  
G28  20830727.398   109052078.418         189.820          43.000    20830735.125    83880650.262         147.898          29.000                                                                  
G17  21568506.219   117222335.430        2250.742          45.000    21568515.914    92099956.852        1753.855          30.000    21568517.344    84283343.848        1753.570          44.000  
G11  21680663.328   117528519.707        -653.195          42.000    21680671.773    92351636.715        -508.941          25.000                                                                  
G19  23694085.141   125578686.598        3703.234          38.000    23694094.789   100514498.305        2885.594          24.000                                                                  
G13  22192881.414   117415576.559         410.812          43.000    22192890.719    92258999.008         320.184          25.000                                                                  
G 1  22323183.188   117321393.004        1295.773          40.000    22323195.977    92182242.625        1009.641          24.000    22323196.102    92734548.594        1009.574          44.000  
G18  22651249.141   117507463.664        -445.266          41.000    22651258.711    92364354.684        -346.957          21.000                                                                  
G 7  21971798.625   117667046.535       -2700.219          43.000    21971808.688    92475490.656       -2104.094          26.000    21971809.000    93270198.652       -2104.055          43.000  
G15  24346573.656   125706922.723        1339.219          43.000    24346583.125   100567294.727        1043.523          26.000    24346584.930   101120613.715        1043.438          43.000  
G 8  24651090.523   126222782.680       -3513.629          42.000    24651103.805   100992592.797       -2737.926          26.000    24651104.398   101442410.773       -2738.066          43.000  
R20  19810882.961   108851811.043        2053.473          38.000    19810889.078    83738360.035        1596.801          40.000  
R 9  20041352.062   109187388.980       -1094.617          44.000    20041355.617    83999135.559        -851.613          44.000  
R19  20835041.188   109301806.559       -2578.773          38.000    20835044.984    84098648.758       -2005.840          38.000  
R 1  23283731.992   125945906.188        -984.363          40.000    23283738.734   100764494.469        -765.605          37.000  
R 8  23472284.586   126086315.715       -3046.914          39.000    23472287.852   100876855.180       -2369.793          38.000  
R21  23255231.242   125477270.242        4535.883          41.000    23255236.430   100406292.316        3528.055          41.000  
R10  20037513.680   108956186.605        1775.340          45.000    20037521.195    83838672.527        1380.824          38.000  
S35                                                        41.000  
S33                                                        42.000  
S38                                                        41.000  
S31                                                        41.000  
> 2019  3 26 21 33 51.0000000  0 22                     
G30  20341558.172   109173894.371        -965.531          44.000    20341569.164    83991175.105        -752.391          32.000    20341570.039    84640161.082        -752.730          47.000  
G28  20830690.961   109051888.484         189.586          43.000    20830699.008    83880502.277         147.734          29.000                                                                  
G17  21568078.000   117220084.629        2250.227          45.000    21568087.578    92098202.988        1753.387          30.000    21568088.617    84281589.961        1753.422          44.000  
G11  21680787.367   117529172.586        -653.691          42.000    21680796.016    92352145.434        -509.316          26.000                                                                  
G19  23693380.555   125574982.723        3703.160          38.000    23693389.867   100511612.168        2885.441          24.000                                                                  
G13  22192803.539   117415165.820         410.027          43.000    22192812.477    92258678.953         319.465          25.000                                                                  
G 1  22322936.773   117320097.293        1295.309          41.000    22322949.203    92181232.957        1009.262          25.000    22322949.828    92733538.953        1008.996          44.000  
G18  22651334.172   117507909.109        -445.719          42.000    22651343.461    92364701.797        -347.273          22.000                                                                  
G 7  21972312.266   117669746.512       -2700.621          43.000    21972322.398    92477594.543       -2104.418          26.000    21972322.727    93272302.527       -2104.301          43.000  
G15  24346318.703   125705583.520        1338.773          43.000    24346328.219   100566251.219        1043.145          27.000    24346329.281   101119570.191        1043.137          42.000  
G 8  24651758.727   126226296.203       -3513.883          42.000    24651772.547   100995330.590       -2738.121          26.000    24651773.125   101445148.590       -2738.012          44.000  
R20  19810499.297   108849757.949        2053.020          38.000    19810504.969    83736763.133        1596.254          41.000  
R 9  20041557.141   109188483.336       -1095.090          44.000    20041560.641    83999986.711        -851.441          45.000  
R19  20835522.922   109304385.543       -2579.555          38.000    20835526.977    84100654.617       -2006.000          38.000  
R 1  23283916.141   125946890.508        -985.078          40.000    23283922.734   100765260.059        -766.219          37.000  
R 8  23472853.383   126089362.246       -3047.309          39.000    23472856.820   100879224.711       -2369.637          38.000  
R21  23254383.492   125472733.855        4535.992          41.000    23254388.734   100402764.027        3528.102          41.000  
R10  20037180.633   108954410.891        1775.332          45.000    20037187.914    83837291.414        1380.816          38.000  
S35                                                        42.000  
S33                                                        42.000  
S38                                                        42.000  
S31                                                        41.000  
> 2019  3 26 21 33 52.0000000  0 22                     
G30  20341741.961   109174859.898        -966.137          45.000    20341752.805    83991927.445        -752.848          32.000    20341753.922    84640913.430        -752.852          47.000  
G28  20830654.883   109051698.512         189.227          43.000    20830662.820    83880354.230         147.457          30.000                                                                  
G17  21567650.234   117217834.027        2249.793          45.000    21567659.375    92096449.270        1753.109          30.000    21567660.102    84279836.246        1753.055          45.000  
G11  21680911.961   117529825.891        -654.184          41.000    21680920.531    92352654.488        -509.707          26.000                                                                  
G19  23692676.305   125571278.832        3703.133          38.000    23692684.891   100508726.012        2885.594          23.000                                                                  
G13  22192725.391   117414755.500         409.801          43.000    22192734.352    92258359.238         319.320          26.000                                                                  
G 1  22322690.234   117318801.969        1294.496          40.000    22322702.617    92180223.598        1008.805          24.000    22322703.062    92732529.598        1008.617          44.000  
G18  22651419.094   117508355.027        -446.645          41.000    22651428.430    92365049.250        -348.086          21.000                                                                  
G 7  21972826.219   117672446.637       -2700.512          44.000    21972836.383    92479698.520       -2104.281          27.000    21972836.164    93274406.520       -2104.543          43.000  
G15  24346064.828   125704244.656        1338.113          43.000    24346073.359   100565207.945        1042.660          26.000    24346075.109   101118526.910        1042.582          42.000  
G 8  24652427.773   126229809.562       -3514.211          42.000    24652441.078   100998068.254       -2738.273          26.000    24652441.492   101447886.262       -2738.277          44.000  
R20  19810115.195   108847705.406        2051.641          37.000    19810121.523    83735166.719        1595.480          41.000  
R 9  20041762.094   109189577.855       -1095.273          44.000    20041765.648    84000838.012        -851.961          45.000  
R19  20836005.242   109306964.984       -2580.297          38.000    20836009.422    84102660.855       -2007.004          38.000  
R 1  23284100.250   125947875.316        -985.840          40.000    23284107.156   100766026.012        -766.797          36.000  
R 8  23473422.719   126092408.855       -3047.617          39.000    23473425.242   100881594.289       -2370.113          38.000  
R21  23253536.047   125468197.375        4535.879          41.000    23253540.836   100399235.664        3528.148          41.000  
R10  20036847.664   108952635.234        1775.215          45.000    20036855.023    83835910.344        1380.715          38.000  
S35                                                        42.000  
S33                                                        43.000  
S38                                                        42.000  
S31                                                        41.000  
> 2019  3 26 21 33 53.0000000  0 22                     
G30  20341925.930   109175826.148        -967.207          45.000    20341936.656    83992680.371        -753.688          32.000    20341937.812    84641666.344        -753.438          47.000  
G28  20830618.633   109051508.895         188.758          43.000    20830626.711    83880206.477         147.082          29.000                                                                  
G17  21567222.000   117215584.023        2249.242          45.000    21567231.188    92094696.016        1752.699          30.000    21567232.328    84278083.004        1752.617          45.000  
G11  21681036.039   117530480.055        -655.004          42.000    21681044.930    92353164.227        -510.426          25.000                                                                  
G19  23691970.617   125567575.285        3703.137          38.000    23691980.148   100505840.184        2885.438          24.000                                                                  
G13  22192647.031   117414346.043         408.641          43.000    22192656.406    92258040.168         318.367          25.000                                                                  
G 1  22322444.133   117317507.426        1294.180          40.000    22322456.195    92179214.879        1008.430          25.000    22322456.906    92731520.883        1008.328          44.000  
G18  22651503.945   117508801.816        -447.547          41.000    22651513.297    92365397.398        -348.730          21.000                                                                  
G 7  21973340.133   117675147.348       -2701.590          43.000    21973350.211    92481802.992       -2105.230          27.000    21973350.430    93276510.973       -2104.867          43.000  
G15  24345810.195   125702906.516        1337.305          43.000    24345818.758   100564165.223        1042.074          26.000    24345820.000   101117484.207        1042.141          42.000  
G 8  24653096.852   126233323.137       -3514.035          42.000    24653109.594   101000806.129       -2738.219          26.000    24653110.680   101450624.113       -2738.133          44.000  
R20  19809731.977   108845653.820        2052.133          37.000    19809737.617    83733571.059        1595.184          41.000  
R 9  20041967.234   109190673.016       -1095.883          44.000    20041970.656    84001689.797        -852.289          45.000  
R19  20836486.828   109309545.289       -2581.270          38.000    20836491.898    84104667.766       -2007.680          38.000  
R 1  23284284.180   125948861.016        -986.238          40.000    23284291.656   100766792.668        -767.082          36.000  
R 8  23473991.734   126095455.957       -3047.875          39.000    23473994.273   100883964.242       -2370.512          38.000  
R21  23252688.141   125463661.215        4535.754          41.000    23252693.188   100395707.531        3527.906          41.000  
R10  20036514.594   108950860.074        1774.578          45.000    20036521.969    83834529.664        1380.223          38.000  
S35                                                        41.000  
S33                                                        43.000  
S38                                                        42.000  
S31                                                        41.000  
> 2019  3 26 21 33 54.0000000  0 22                     
G30  20342109.227   109176793.000        -967.441          45.000    20342120.602    83993433.766        -753.848          31.000    20342121.750    84642419.734        -753.711          47.000  
G28  20830583.156   109051319.547         188.914          43.000    20830590.680    83880058.945         147.219          29.000                                                                  
G17  21566793.680   117213334.543        2249.242          45.000    21566803.078    92092943.176        1752.672          30.000    21566804.312    84276330.168        1752.402          45.000  
G11  21681161.156   117531134.988        -655.676          42.000    21681169.648    92353674.598        -510.738          25.000                                                                  
G19  23691266.578   125563872.062        3702.664          38.000    23691275.305   100502954.535        2885.164          24.000                                                                  
G13  22192569.391   117413937.328         408.242          43.000    22192578.430    92257721.699         318.039          25.000                                                                  
G 1  22322197.680   117316213.605        1293.422          40.000    22322210.094    92178206.715        1007.848          25.000    22322210.742    92730512.699        1007.660          44.000  
G18  22651588.508   117509249.402        -448.156          41.000    22651598.156    92365746.191        -349.254          22.000                                                                  
G 7  21973854.227   117677848.520       -2701.574          43.000    21973864.352    92483907.801       -2105.078          26.000    21973864.844    93278615.773       -2105.129          43.000  
G15  24345555.391   125701569.039        1336.754          43.000    24345564.312   100563123.039        1041.609          26.000    24345565.922   101116442.020        1041.535          42.000  
G 8  24653765.289   126236836.859       -3514.133          42.000    24653778.109   101003544.086       -2738.223          26.000    24653778.875   101453362.070       -2738.094          44.000  
R20  19809348.031   108843603.227        2050.340          38.000    19809354.172    83731976.141        1594.211          41.000  
R 9  20042172.266   109191768.727       -1096.043          44.000    20042175.820    84002542.004        -852.418          45.000  
R19  20836969.719   109312126.395       -2581.828          38.000    20836974.320    84106675.285       -2008.176          38.000  
R 1  23284468.930   125949847.582        -987.488          40.000    23284476.109   100767559.996        -768.074          36.000  
R 8  23474560.953   126098503.484       -3047.758          39.000    23474563.531   100886334.547       -2370.805          38.000  
R21  23251840.586   125459125.266        4535.406          41.000    23251845.469   100392179.590        3527.723          41.000  
R10  20036181.508   108949085.285        1774.195          44.000    20036188.938    83833149.277        1379.961          38.000  
S35                                                        41.000  
S33                                                        42.000  
S38                                                        42.000  
S31                                                        41.000  
> 2019  3 26 21 33 55.0000000  0 22                     
G30  20342293.891   109177760.934        -967.992          45.000    20342304.789    83994188.000        -754.227          31.000    20342305.422    84643173.980        -754.367          47.000  
G28  20830546.711   109051130.926         188.395          43.000    20830554.852    83879911.969         146.840          29.000                                                                  
G17  21566365.922   117211086.059        2248.355          45.000    21566375.164    92091191.121        1751.941          29.000    21566376.086    84274578.094        1752.055          45.000  
G11  21681285.430   117531791.109        -655.816          42.000    21681294.336    92354185.871        -511.035          26.000                                                                  
G19  23690562.078   125560169.578        3702.383          38.000    23690570.469   100500069.445        2885.012          23.000                                                                  
G13  22192492.461   117413529.844         407.062          43.000    22192501.055    92257404.172         317.172          24.000                                                                  
G 1  22321952.430   117314920.953        1292.547          40.000    22321964.016    92177199.469        1007.062          25.000    22321964.562    92729505.426        1007.340          44.000  
G18  22651674.062   117509698.234        -449.188          41.000    22651683.539    92366095.918        -349.910          22.000                                                                  
G 7  21974368.570   117680550.648       -2702.102          44.000    21974378.586    92486013.332       -2105.438          26.000    21974378.891    93280721.324       -2105.656          43.000  
G15  24345301.102   125700232.676        1336.242          43.000    24345310.086   100562081.719        1041.312          26.000    24345311.375   101115400.688        1041.086          42.000  
G 8  24654433.547   126240351.184       -3514.281          42.000    24654446.734   101006282.516       -2738.395          26.000    24654448.023   101456100.504       -2738.332          44.000  
R20  19808964.914   108841553.977        2048.266          37.000    19808970.828    83730382.277        1593.488          41.000  
R 9  20042377.695   109192865.406       -1096.594          44.000    20042381.203    84003394.980        -852.801          45.000  
R19  20837453.102   109314708.750       -2582.812          38.000    20837456.664    84108683.766       -2008.621          39.000  
R 1  23284653.633   125950835.402        -988.223          40.000    23284660.273   100768328.301        -768.598          36.000  
R 8  23475130.914   126101551.957       -3048.773          39.000    23475132.711   100888705.574       -2371.125          38.000  
R21  23250992.891   125454590.039        4535.113          41.000    23250997.875   100388652.180        3527.703          41.000  
R10  20035848.781   108947311.344        1773.898          45.000    20035856.297    83831769.539        1379.715          38.000  
S35                                                        41.000  
S33                                                        43.000  
S38                                                        42.000  
S31                                                        41.000  
> 2019  3 26 21 33 56.0000000  0 22                     
G30  20342478.516   109178729.363        -968.461          45.000    20342489.188    83994942.602        -754.594          31.000    20342490.461    84643928.598        -754.816          47.000  
G28  20830511.430   109050942.438         188.512          43.000    20830519.008    83879765.090         146.898          29.000                                                                  
G17  21565938.008   117208837.945        2248.219          45.000    21565947.414    92089439.340        1751.871          30.000    21565948.758    84272826.320        1751.590          45.000  
G11  21681410.688   117532447.883        -656.887          41.000    21681419.523    92354697.629        -511.844          26.000                                                                  
G19  23689857.578   125556467.223        3702.422          38.000    23689865.938   100497184.523        2884.922          24.000                                                                  
G13  22192415.383   117413122.949         406.926          43.000    22192423.602    92257087.105         317.129          25.000                                                                  
G 1  22321706.047   117313628.836        1292.066          41.000    22321718.148    92176192.617        1006.902          25.000    22321718.211    92728498.605        1006.684          44.000  
G18  22651760.102   117510147.707        -449.891          42.000    22651769.102    92366446.152        -350.629          22.000                                                                  
G 7  21974882.680   117683253.109       -2702.727          44.000    21974892.680    92488119.156       -2105.969          26.000    21974893.164    93282827.129       -2105.660          44.000  
G15  24345046.594   125698896.797        1335.734          43.000    24345055.812   100561040.789        1040.883          26.000    24345056.727   101114359.758        1040.738          42.000  
G 8  24655102.383   126243865.484       -3514.031          42.000    24655115.555   101009020.953       -2738.164          26.000    24655117.117   101458838.922       -2738.074          44.000  
R20  19808581.812   108839505.465        2048.703          38.000    19808587.711    83728788.996        1593.051          41.000  
R 9  20042583.258   109193962.488       -1097.465          44.000    20042586.664    84004248.281        -853.461          45.000  
R19  20837936.133   109317291.734       -2584.328          39.000    20837939.719    84110692.766       -2008.949          39.000  
R 1  23284838.469   125951823.906        -989.168          40.000    23284845.531   100769097.137        -769.395          37.000  
R 8  23475700.297   126104600.707       -3049.469          39.000    23475702.367   100891076.848       -2370.176          38.000  
R21  23250145.531   125450054.871        4535.797          41.000    23250150.562   100385124.844        3527.863          41.000  
R10  20035516.094   108945537.641        1773.996          45.000    20035523.211    83830389.988        1379.785          38.000  
S35                                                        42.000  
S33                                                        42.000  
S38                                                        42.000  
S31                                                        41.000  
> 2019  3 26 21 33 57.0000000  0 22                     
G30  20342663.109   109179698.730        -968.855          45.000    20342673.664    83995697.965        -754.977          32.000    20342674.289    84644683.949        -754.941          47.000  
G28  20830475.984   109050754.566         188.254          44.000    20830483.195    83879618.695         146.707          29.000                                                                  
G17  21565510.469   117206590.684        2247.797          45.000    21565519.742    92087688.246        1751.531          30.000    21565520.602    84271075.203        1751.578          45.000  
G11  21681536.023   117533105.711        -657.035          42.000    21681544.664    92355210.203        -511.949          26.000                                                                  
G19  23689153.281   125552765.508        3702.367          39.000    23689161.523   100494300.062        2885.043          23.000                                                                  
G13  22192338.250   117412717.180         406.109          43.000    22192346.312    92256770.926         316.496          25.000                                                                  
G 1  22321459.758   117312337.785        1291.379          40.000    22321472.500    92175186.586        1006.289          25.000    22321473.281    92727492.586        1006.062          44.000  
G18  22651846.055   117510598.262        -450.344          41.000    22651854.922    92366797.254        -350.945          23.000                                                                  
G 7  21975396.938   117685956.371       -2702.883          44.000    21975406.883    92490225.605       -2106.172          26.000    21975407.195    93284933.582       -2106.195          43.000  
G15  24344792.414   125697561.910        1335.207          43.000    24344801.859   100560000.613        1040.391          26.000    24344803.016   101113319.586        1040.488          42.000  
G 8  24655771.297   126247380.277       -3514.184          42.000    24655784.453   101011759.719       -2738.273          27.000    24655784.711   101461577.719       -2738.086          44.000  
R20  19808198.992   108837458.203        2048.316          38.000    19808205.109    83727196.695        1592.582          41.000  
R 9  20042788.836   109195060.406       -1097.805          44.000    20042792.289    84005102.215        -853.680          45.000  
R19  20838419.156   109319875.871       -2583.820          39.000    20838422.891    84112702.645       -2009.551          39.000  
R 1  23285023.672   125952813.566        -989.355          40.000    23285030.961   100769866.867        -769.543          36.000  
R 8  23476270.328   126107650.195       -3049.316          39.000    23476271.906   100893448.641       -2371.223          38.000  
R21  23249298.148   125445520.324        4534.941          41.000    23249302.859   100381597.953        3527.625          41.000  
R10  20035183.609   108943764.684        1773.539          45.000    20035190.773    83829011.027        1379.434          38.000  
S35                                                        41.000  
S33                                                        43.000  
S38                                                        41.000  
S31                                                        42.000  
> 2019  3 26 21 33 58.0000000  0 22                     
G30  20342847.258   109180668.180        -969.586          44.000    20342858.109    83996453.375        -755.461          31.000    20342858.984    84645439.355        -755.277          46.000  
G28  20830439.875   109050566.391         187.953          43.000    20830447.297    83879472.074         146.457          29.000                                                                  
G17  21565082.562   117204343.402        2246.926          45.000    21565091.992    92085937.105        1750.875          29.000    21565092.852    84269324.078        1751.062          45.000  
G11  21681660.859   117533763.766        -658.250          42.000    21681670.070    92355722.988        -512.922          25.000                                                                  
G19  23688448.930   125549063.539        3701.555          38.000    23688457.227   100491415.414        2884.168          23.000                                                                  
G13  22192260.117   117412311.602         405.141          43.000    22192269.000    92256454.902         315.594          25.000                                                                  
G 1  22321213.805   117311046.887        1290.238          40.000    22321226.828    92174180.715        1005.340          25.000    22321227.844    92726486.680        1005.613          44.000  
G18  22651931.336   117511049.062        -451.270          42.000    22651940.617    92367148.543        -351.621          21.000                                                                  
G 7  21975911.758   117688659.566       -2703.270          43.000    21975921.320    92492331.969       -2106.363          25.000    21975921.703    93287039.961       -2106.586          43.000  
G15  24344538.438   125696227.133        1334.422          43.000    24344547.797   100558960.531        1039.723          25.000    24344549.023   101112279.504        1039.891          42.000  
G 8  24656439.617   126250894.664       -3514.383          42.000    24656453.164   101014498.227       -2738.430          26.000    24656453.828   101464316.219       -2738.570          44.000  
R20  19807816.133   108835411.359        2045.863          38.000    19807822.008    83725604.676        1591.375          41.000  
R 9  20042994.250   109196158.277       -1098.305          43.000    20042997.812    84005956.129        -854.418          45.000  
R19  20838902.562   109322460.246       -2584.316          39.000    20838906.188    84114712.730       -2010.312          38.000  
R 1  23285208.984   125953803.500        -990.020          40.000    23285216.289   100770636.828        -769.980          36.000  
R 8  23476839.414   126110699.535       -3049.504          40.000    23476841.078   100895820.363       -2372.430          38.000  
R21  23248450.797   125440985.410        4534.902          41.000    23248455.523   100378070.828        3526.664          41.000  
R10  20034850.711   108941991.539        1772.902          45.000    20034858.117    83827631.926        1378.898          38.000  
S35                                                        41.000  
S33                                                        43.000  
S38                                                        42.000  
S31                                                        42.000  
> 2019  3 26 21 33 59.0000000  0 22                     
G30  20343032.188   109181637.957        -970.129          44.000    20343042.625    83997209.043        -755.930          32.000    20343043.906    84646195.031        -755.883          47.000  
G28  20830404.102   109050378.227         187.695          43.000    20830411.516    83879325.441         146.293          30.000                                                                  
G17  21564655.625   117202096.355        2246.645          45.000    21564664.344    92084186.156        1750.684          30.000    21564665.242    84267573.137        1750.668          45.000  
G11  21681786.742   117534422.289        -659.109          41.000    21681795.359    92356236.113        -513.703          26.000                                                                  
G19  23687744.172   125545361.527        3702.184          38.000    23687753.133   100488530.750        2884.816          25.000                                                                  
G13  22192183.406   117411906.492         404.602          43.000    22192191.953    92256139.219         315.230          25.000                                                                  
G 1  22320968.523   117309756.383        1289.586          40.000    22320981.383    92173175.113        1004.914          24.000    22320981.406    92725481.090        1005.117          44.000  
G18  22652017.984   117511500.379        -451.957          41.000    22652026.680    92367500.195        -352.172          22.000                                                                  
G 7  21976425.977   117691362.949       -2703.465          44.000    21976435.781    92494438.504       -2106.613          26.000    21976435.969    93289146.496       -2106.855          43.000  
G15  24344284.633   125694892.707        1333.875          43.000    24344293.742   100557920.707        1039.398          26.000    24344295.070   101111239.695        1039.383          43.000  
G 8  24657109.031   126254408.883       -3514.492          42.000    24657121.852   101017236.570       -2738.574          27.000    24657122.680   101467054.562       -2738.383          44.000  
R20  19807433.508   108833365.113        2045.871          38.000    19807439.266    83724013.156        1591.219          40.000  
R 9  20043199.875   109197256.398       -1098.496          43.000    20043203.438    84006810.223        -854.480          45.000  
R19  20839385.930   109325045.156       -2585.793          39.000    20839389.281    84116723.199       -2010.859          39.000  
R 1  23285394.414   125954793.977        -990.988          40.000    23285401.703   100771407.188        -770.836          36.000  
R 8  23477408.695   126113748.977       -3049.859          39.000    23477410.453   100898192.172       -2372.246          38.000  
R21  23247603.367   125436450.410        4534.805          41.000    23247607.992   100374543.605        3526.742          41.000  
R10  20034518.227   108940218.484        1772.820          44.000    20034525.602    83826252.879        1378.848          37.000  
S35                                                        41.000  
S33                                                        42.000  
S38                                                        41.000  
S31                                                        41.000  
> 2019  3 26 21 34  0.0000000  0 22                     
G30  20343216.289   109182607.945        -970.836          45.000    20343227.148    83997964.875        -756.520          32.000    20343228.484    84646950.867        -756.586          47.000  
G28  20830368.047   109050189.902         187.637          43.000    20830375.602    83879178.699         146.188          30.000                                                                  
G17  21564227.906   117199849.406        2246.328          45.000    21564236.805    92082435.293        1750.391          30.000    21564237.578    84265822.289        1750.055          45.000  
G11  21681911.844   117535081.152        -659.879          41.000    21681920.766    92356749.508        -514.191          25.000                                                                  
G19  23687039.719   125541659.422        3701.602          38.000    23687048.750   100485645.988        2884.297          23.000                                                                  
G13  22192106.477   117411501.723         403.891          43.000    22192114.992    92255823.812         314.645          26.000                                                                  
G 1  22320723.781   117308466.176        1288.980          40.000    22320735.875    92172169.762        1004.531          25.000    22320736.734    92724475.738        1004.816          44.000  
G18  22652103.484   117511952.070        -452.609          41.000    22652112.430    92367852.137        -352.457          21.000                                                                  
G 7  21976940.594   117694066.402       -2704.188          44.000    21976950.188    92496545.098       -2107.223          26.000    21976949.836    93291253.082       -2107.203          43.000  
G15  24344030.648   125693558.520        1333.562          43.000    24344039.852   100556881.098        1039.156          25.000    24344041.234   101110200.086        1038.898          43.000  
G 8  24657777.977   126257922.812       -3514.543          42.000    24657790.539   101019974.680       -2738.574          26.000    24657791.023   101469792.691       -2738.707          44.000  
R20  19807051.219   108831319.379        2044.465          38.000    19807056.875    83722422.031        1590.402          41.000  
R 9  20043405.078   109198354.602       -1098.645          44.000    20043409.148    84007664.379        -855.016          45.000  
R19  20839869.195   109327630.449       -2586.387          39.000    20839872.398    84118733.961       -2012.234          38.000  
R 1  23285579.281   125955784.852        -991.895          40.000    23285586.789   100772177.863        -771.449          36.000  
R 8  23477978.039   126116798.410       -3050.344          39.000    23477980.172   100900563.930       -2372.406          38.000  
R21  23246755.695   125431915.234        4534.590          41.000    23246760.445   100371016.246        3527.035          41.000  
R10  20034185.656   108938445.383        1772.188          44.000    20034193.086    83824873.793        1378.375          38.000  
S35                                                        41.000  
S33                                                        43.000  
S38                                                        41.000  
S31                                                        41.000  
> 2019  3 26 21 34  1.0000000  0 22                     
G30  20343401.234   109183578.016        -970.926          45.000    20343411.797    83998720.785        -756.586          32.000    20343413.242    84647706.766        -756.707          47.000  
G28  20830331.859   109050001.309         187.855          43.000    20830339.547    83879031.750         146.387          29.000                                                                  
G17  21563800.109   117197602.465        2245.949          45.000    21563809.352    92080684.430        1750.078          30.000    21563809.867    84264071.414        1750.062          45.000  
G11  21682037.641   117535740.219        -660.078          41.000    21682046.156    92357263.078        -514.367          26.000                                                                  
G19  23686335.469   125537957.066        3701.238          38.000    23686344.180   100482761.047        2884.035          24.000                                                                  
G13  22192029.203   117411097.180         403.234          43.000    22192037.930    92255508.582         314.207          25.000                                                                  
G 1  22320478.688   117307176.121        1288.750          40.000    22320490.445    92171164.516        1004.199          25.000    22320490.961    92723470.516        1004.262          44.000  
G18  22652189.211   117512404.031        -453.344          41.000    22652198.344    92368204.309        -353.305          22.000                                                                  
G 7  21977454.758   117696769.812       -2704.648          44.000    21977464.578    92498651.637       -2107.402          26.000    21977465.359    93293359.621       -2107.348          43.000  
G15  24343776.555   125692224.465        1333.102          43.000    24343785.672   100555841.566        1038.820          25.000    24343787.062   101109160.547        1038.855          43.000  
G 8  24658446.570   126261436.355       -3514.414          42.000    24658459.023   101022712.508       -2738.469          26.000    24658459.539   101472530.508       -2738.570          44.000  
R20  19806668.344   108829273.996        2043.598          37.000    19806674.406    83720831.199        1589.746          41.000  
R 9  20043611.008   109199452.820       -1099.715          43.000    20043614.773    84008518.539        -855.066          45.000  
R19  20840352.641   109330215.883       -2586.879          39.000    20840355.664    84120744.875       -2011.852          38.000  
R 1  23285764.812   125956776.012        -992.594          40.000    23285772.172   100772948.773        -772.031          36.000  
R 8  23478547.242   126119847.758       -3050.555          39.000    23478549.289   100902935.609       -2372.488          38.000  
R21  23245908.133   125427379.781        4534.176          41.000    23245913.055   100367488.668        3526.828          41.000  
R10  20033852.844   108936672.133        1772.289          44.000    20033860.289    83823494.602        1378.473          38.000  
S35                                                        41.000  
S33                                                        42.000  
S38                                                        41.000  
S31                                                        42.000  
> 2019  3 26 21 34  2.0000000  0 22                     
G30  20343586.141   109184549.746        -972.000          45.000    20343596.734    83999477.980        -757.430          31.000    20343597.656    84648463.953        -757.332          47.000  
G28  20830297.070   109049814.035         187.035          43.000    20830303.914    83878885.805         145.730          30.000                                                                  
G17  21563372.578   117195357.062        2245.121          45.000    21563382.188    92078934.785        1749.387          30.000    21563382.633    84262321.750        1749.410          45.000  
G11  21682163.617   117536401.070        -660.773          42.000    21682171.867    92357778.043        -514.898          26.000                                                                  
G19  23685631.094   125534256.012        3701.047          38.000    23685639.648   100479877.125        2883.926          24.000                                                                  
G13  22191952.547   117410694.430         402.523          43.000    22191961.312    92255194.758         313.754          24.000                                                                  
G 1  22320232.656   117305887.816        1287.516          41.000    22320245.297    92170160.652        1003.312          25.000    22320245.938    92722466.621        1003.656          44.000  
G18  22652275.781   117512857.816        -454.328          41.000    22652284.641    92368557.918        -353.988          22.000                                                                  
G 7  21977969.375   117699474.703       -2704.953          43.000    21977979.258    92500759.352       -2107.812          26.000    21977979.172    93295467.336       -2107.812          43.000  
G15  24343523.016   125690892.090        1332.129          43.000    24343532.164   100554803.355        1038.066          26.000    24343533.750   101108122.320        1038.109          43.000  
G 8  24659115.453   126264951.047       -3514.348          42.000    24659127.977   101025451.246       -2738.465          27.000    24659128.641   101475269.234       -2738.828          44.000  
R20  19806286.133   108827230.590        2042.887          38.000    19806292.203    83719241.867        1589.270          41.000  
R 9  20043816.898   109200552.586       -1100.340          44.000    20043820.641    84009373.906        -855.617          44.000  
R19  20840836.281   109332803.188       -2587.664          39.000    20840839.672    84122757.230       -2012.832          39.000  
R 1  23285950.906   125957769.047        -993.109          40.000    23285957.672   100773721.125        -772.383          36.000  
R 8  23479117.180   126122898.508       -3050.699          40.000    23479119.109   100905308.449       -2373.105          38.000  
R21  23245060.711   125422845.570        4533.969          41.000    23245065.516   100363962.055        3526.855          41.000  
R10  20033520.383   108934900.277        1771.965          44.000    20033527.945    83822116.484        1378.207          38.000  
S35                                                        41.000  
S33                                                        42.000  
S38                                                        41.000  
S31                                                        41.000  
> 2019  3 26 21 34  3.0000000  0 22                     
G30  20343770.695   109185521.293        -972.621          45.000    20343781.539    84000235.020        -757.918          32.000    20343782.656    84649221.008        -758.004          47.000  
G28  20830260.602   109049626.211         186.844          43.000    20830268.055    83878739.457         145.586          29.000                                                                  
G17  21562946.000   117193111.383        2244.621          45.000    21562954.953    92077184.891        1749.016          30.000    21562955.633    84260571.871        1749.246          45.000  
G11  21682289.805   117537061.922        -662.086          42.000    21682297.805    92358292.996        -516.031          26.000                                                                  
G19  23684925.836   125530554.457        3701.320          38.000    23684935.430   100476992.781        2884.176          24.000                                                                  
G13  22191875.789   117410291.629         401.746          43.000    22191884.633    92254880.867         313.172          25.000                                                                  
G 1  22319988.398   117304599.410        1287.688          41.000    22320000.016    92169156.699        1003.348          25.000    22320000.836    92721462.688        1003.000          44.000  
G18  22652362.594   117513311.598        -455.059          41.000    22652371.008    92368911.512        -354.531          22.000                                                                  
G 7  21978484.164   117702179.289       -2705.445          44.000    21978493.805    92502866.832       -2108.168          26.000    21978494.609    93297574.797       -2108.137          43.000  
G15  24343269.922   125689559.566        1331.387          43.000    24343278.453   100553765.023        1037.410          26.000    24343280.672   101107083.996        1037.680          43.000  
G 8  24659784.398   126268465.094       -3515.055          42.000    24659796.742   101028189.453       -2739.129          26.000    24659797.023   101478007.445       -2738.887          44.000  
R20  19805904.664   108825187.355        2041.750          38.000    19805910.375    83717652.660        1588.281          41.000  
R 9  20044022.727   109201652.055       -1101.039          44.000    20044026.359    84010229.035        -855.574          45.000  
R19  20841320.219   109335390.492       -2588.578          39.000    20841323.500    84124769.559       -2012.980          38.000  
R 1  23286136.539   125958762.109        -994.102          40.000    23286143.625   100774493.508        -773.211          37.000  
R 8  23479686.695   126125948.902       -3051.152          40.000    23479688.789   100907680.953       -2373.113          38.000  
R21  23244213.508   125418310.762        4534.004          41.000    23244217.969   100360434.992        3526.363          41.000  
R10  20033188.047   108933128.016        1771.590          45.000    20033195.375    83820738.062        1377.855          38.000  
S35                                                        42.000  
S33                                                        42.000  
S38                                                        41.000  
S31                                                        41.000  
> 2019  3 26 21 34  4.0000000  0 22                     
G30  20343955.688   109186493.777        -972.820          45.000    20343966.633    84000992.797        -758.047          31.000    20343967.953    84649978.777        -757.891          47.000  
G28  20830224.836   109049438.984         187.387          43.000    20830232.445    83878593.562         146.008          29.000                                                                  
G17  21562518.062   117190866.551        2244.535          45.000    21562527.852    92075435.668        1749.047          30.000    21562528.555    84258822.648        1748.867          45.000  
G11  21682414.914   117537723.816        -662.324          42.000    21682423.859    92358808.738        -516.090          26.000                                                                  
G19  23684222.383   125526853.500        3701.180          38.000    23684231.289   100474108.910        2884.117          24.000                                                                  
G13  22191799.633   117409889.906         401.145          43.000    22191808.148    92254567.844         312.656          24.000                                                                  
G 1  22319741.602   117303312.035        1286.543          41.000    22319755.078    92168153.543        1002.582          25.000    22319754.852    92720459.543        1002.625          44.000  
G18  22652448.789   117513766.488        -455.570          41.000    22652457.742    92369266.004        -355.102          22.000                                                                  
G 7  21978999.023   117704884.676       -2705.629          44.000    21979008.609    92504974.922       -2108.355          27.000    21979009.219    93299682.887       -2108.312          43.000  
G15  24343016.164   125688228.012        1331.172          43.000    24343025.297   100552727.457        1037.281          26.000    24343026.508   101106046.434        1037.078          43.000  
G 8  24660453.078   126271979.598       -3514.629          42.000    24660465.664   101030928.031       -2738.656          26.000    24660466.523   101480746.023       -2738.750          44.000  
R20  19805522.789   108823145.254        2042.051          38.000    19805528.367    83716064.402        1587.887          41.000  
R 9  20044228.836   109202752.375       -1100.832          44.000    20044232.242    84011084.859        -856.000          45.000  
R19  20841804.102   109337978.875       -2588.953          39.000    20841807.062    84126782.754       -2013.457          38.000  
R 1  23286322.383   125959756.301        -993.961          40.000    23286329.484   100775266.770        -773.098          36.000  
R 8  23480256.016   126129000.035       -3051.340          39.000    23480258.352   100910054.086       -2374.191          38.000  
R21  23243366.078   125413776.488        4533.953          41.000    23243370.664   100356908.328        3526.781          41.000  
R10  20032855.750   108931356.457        1771.441          45.000    20032862.805    83819360.191        1377.750          38.000  
S35                                                        42.000  
S33                                                        43.000  
S38                                                        42.000  
S31                                                        42.000  
> 2019  3 26 21 34  5.0000000  0 22                     
G30  20344140.680   109187466.602        -973.266          45.000    20344151.688    84001750.848        -758.445          31.000    20344153.211    84650736.836        -758.375          47.000  
G28  20830189.422   109049251.770         186.984          43.000    20830196.820    83878447.680         145.699          29.000                                                                  
G17  21562091.328   117188621.953        2244.293          45.000    21562100.641    92073686.625        1748.812          30.000    21562101.203    84257073.621        1748.734          45.000  
G11  21682540.336   117538386.191        -662.906          41.000    21682549.820    92359324.863        -516.664          26.000                                                                  
G19  23683519.586   125523152.562        3701.121          39.000    23683527.203   100471225.086        2884.027          23.000                                                                  
G13  22191723.391   117409488.660         400.809          43.000    22191731.961    92254255.195         312.266          24.000                                                                  
G 1  22319498.289   117302025.062        1286.949          40.000    22319510.234    92167150.719        1002.906          25.000    22319510.312    92719456.715        1002.449          44.000  
G18  22652535.516   117514221.863        -456.098          41.000    22652544.367    92369620.828        -355.398          21.000                                                                  
G 7  21979514.367   117707590.250       -2705.996          44.000    21979523.492    92507083.148       -2108.602          27.000    21979524.031    93301791.121       -2108.277          43.000  
G15  24342762.945   125686896.824        1330.820          43.000    24342771.953   100551690.148        1036.941          26.000    24342773.711   101105009.145        1036.949          43.000  
G 8  24661121.898   126275493.965       -3514.715          42.000    24661134.438   101033666.477       -2738.656          26.000    24661135.250   101483484.492       -2738.609          44.000  
R20  19805140.609   108821103.863        2041.480          37.000    19805146.547    83714476.637        1587.430          41.000  
R 9  20044434.961   109203852.953       -1100.762          44.000    20044438.500    84011940.871        -856.215          44.000  
R19  20842287.906   109340567.770       -2588.848          39.000    20842290.812    84128796.352       -2014.328          39.000  
R 1  23286508.539   125960751.066        -995.055          40.000    23286515.742   100776040.473        -773.980          36.000  
R 8  23480825.750   126132051.320       -3052.082          39.000    23480828.383   100912427.250       -2373.008          39.000  
R21  23242518.922   125409242.199        4533.594          41.000    23242523.344   100353381.672        3526.355          41.000  
R10  20032523.438   108929584.992        1771.324          45.000    20032530.578    83817982.379        1377.703          38.000  
S35                                                        41.000  
S33                                                        43.000  
S38                                                        42.000  
S31                                                        42.000  
> 2019  3 26 21 34  6.0000000  0 22                     
G30  20344325.727   109188439.824        -974.238          45.000    20344336.875    84002509.211        -759.172          32.000    20344337.742    84651495.195        -759.090          47.000  
G28  20830153.352   109049064.598         186.320          43.000    20830161.289    83878301.832         145.227          29.000                                                                  
G17  21561663.766   117186377.664        2243.355          45.000    21561673.484    92071937.852        1748.078          30.000    21561674.398    84255324.812        1748.109          45.000  
G11  21682666.742   117539049.113        -664.215          41.000    21682675.797    92359841.422        -517.551          26.000                                                                  
G19  23682814.289   125519451.707        3699.945          38.000    23682823.055   100468341.277        2882.934          23.000                                                                  
G13  22191647.133   117409087.965         399.637          43.000    22191655.703    92253942.980         311.371          25.000                                                                  
G 1  22319252.758   117300738.613        1285.266          40.000    22319265.438    92166148.289        1001.535          26.000    22319266.078    92718454.281        1001.449          44.000  
G18  22652622.578   117514677.809        -457.203          41.000    22652631.141    92369976.086        -356.172          22.000                                                                  
G 7  21980029.406   117710296.090       -2706.754          44.000    21980038.391    92509191.586       -2109.141          26.000    21980038.695    93303899.578       -2109.254          43.000  
G15  24342509.766   125685566.082        1329.652          43.000    24342518.742   100550653.223        1036.086          25.000    24342519.742   101103972.199        1036.012          43.000  
G 8  24661790.398   126279008.270       -3515.191          42.000    24661803.109   101036404.922       -2739.211          26.000    24661804.484   101486222.906       -2739.109          44.000  
R20  19804759.078   108819063.246        2037.711          38.000    19804764.977    83712889.418        1586.316          41.000  
R 9  20044641.383   109204953.855       -1102.098          44.000    20044644.508    84012797.121        -857.266          44.000  
R19  20842772.148   109343157.289       -2591.059          38.000    20842775.297    84130810.398       -2014.773          38.000  
R 1  23286695.242   125961746.418        -996.453          40.000    23286702.031   100776814.633        -774.996          36.000  
R 8  23481395.727   126135102.754       -3052.637          40.000    23481397.875   100914800.609       -2374.008          38.000  
R21  23241671.430   125404707.906        4534.051          41.000    23241675.844   100349855.023        3525.836          41.000  
R10  20032191.383   108927813.680        1770.410          44.000    20032198.312    83816604.688        1377.027          38.000  
S35                                                        41.000  
S33                                                        43.000  
S38                                                        42.000  
S31                                                        41.000  
